id,grupo_institucion,nombre,municipio,localidad,latitud,longitud,conectividad,distancia_torre_estatal_cercana,torre_cercana_coord,proveedor_publico,ipc
3475,seguridad,ITAMA - OFICINAS GENERALES,Hermosillo,Hermosillo,29.07171448,-110.958646,Conectada,0.31,"29.0744732, -110.9584987",0,Nivel 2 (Medio)
3526,seguridad,CENTRO FEDERAL DE READAPTACION SOCIAL,HERMOSILLO,LA HABANA TRES,28.9716862,-111.2948458,Conectada,15.54,"28.85721389, -111.3863694",0,Nivel 2 (Medio)
3512,seguridad,AGENCIA MINISTERIAL DE INVESTIGACIÓN CRIMINAL - QUIRIEGO,Quiriego,Quiriego,27.518318,-109.253965,Conectada,0.38,"27.52069, -109.251259",1,Nivel 1 (Bajo)
3513,seguridad,AGENCIA MINISTERIAL DE INVESTIGACIÓN CRIMINAL - ROSARIO,ROSARIO,ROSARIO,27.841968,-109.373232,Conectada,0.29,"27.840604, -109.370759",1,Nivel 1 (Bajo)
3514,seguridad,AGENCIA DEL MINISTERIO PÚBLICO - ROSARIO,ROSARIO,ROSARIO,27.841967,-109.373042,Conectada,0.27,"27.840604, -109.370759",1,Nivel 1 (Bajo)
3492,seguridad,CENTRO DE COMANDO COMUNICACIÓN COMPUTO Y COORDINACION DE INTELIGENCIA,Hermosillo,Hermosillo,29.064845,-111.048111,Conectada,0.12,"29.06376, -111.048102",0,Nivel 2 (Medio)
3493,seguridad,COORDINACIÓN ESTATAL DE ADMINISTRACIÓN  EVALUACIÓN Y CONTROL,Hermosillo ,Hermosillo,29.092897,-110.981263,Conectada,0.58,"29.09152931, -110.9754964",0,Nivel 2 (Medio)
3494,seguridad,COORDINACION ESTATAL DE LA POLICÍA ESTATAL DE SEGURIDAD PÚBLICA,HERMOSILLO,HERMOSILLO,29.093736,-110.984175,Conectada,0.88,"29.09152931, -110.9754964",0,Nivel 2 (Medio)
3509,seguridad,AGENCIA DEL MINISTERIO PÚBLICO - BACADÉHUACHI,BACADEHUACHI,BACADEHUACHI,29.814174,-109.140927,Conectada,0.61,"29.80873, -109.14072",1,Nivel 1 (Bajo)
3510,seguridad,AGENCIA DEL MINISTERIO PÚBLICO - SAHUARIPA,Sahuaripa,Sahuaripa,29.056348,-109.233421,Conectada,0,"29.056386, -109.233431",1,Nivel 1 (Bajo)
3476,seguridad,ITAMA - HERMOSILLO II FEMENIL,HERMOSILLO,HERMOSILLO,29.04248876,-110.9803153,Conectada,3.4,"29.064011, -110.955496",0,Nivel 2 (Medio)
3478,seguridad,ITAMA - GMASS,HERMOSILLO,SANTA ELENA,29.128689,-110.875642,Conectada,9.4,"29.06939286, -110.944628",0,Nivel 2 (Medio)
3479,seguridad,ITAMA - HERMOSILLO I,Hermosillo,Hermosillo,29.046383,-110.935254,Conectada,0.7,"29.051335, -110.939713",0,Nivel 2 (Medio)
3481,seguridad,ITAMA - CTE HERMOSILLO,HERMOSILLO,HERMOSILLO,29.084389,-110.949607,Conectada,1.15,"29.07631845, -110.9570658",0,Nivel 2 (Medio)
3482,seguridad,ITAMA - COCORIT,CAJEME,COCORIT,27.574099,-109.954146,Conectada,1.55,"27.56626, -109.9411",0,Nivel 2 (Medio)
3483,seguridad,ITAMA - CTE OBREGON,CAJEME,CIUDAD OBREGON,27.50419,-109.95749,Conectada,2.3,"27.4836, -109.955",0,Nivel 2 (Medio)
3511,seguridad,AGENCIA MINISTERIAL DE INVESTIGACIÓN CRIMINAL - SAHUARIPA,Sahuaripa,Sahuaripa,29.054913,-109.232466,Conectada,0.19,"29.056386, -109.233431",1,Nivel 1 (Bajo)
3484,seguridad,ITAMA - CTE NAVOJOA,Navojoa,Navojoa,27.082918,-109.446571,Conectada,0.07,"27.082605, -109.447167",0,Nivel 2 (Medio)
3485,seguridad,ITAMA - CTE NOGALES,Nogales ,Nogales ,31.315246,-110.950317,Conectada,0.44,"31.316111, -110.945833",0,Nivel 2 (Medio)
3486,seguridad,ITAMA - CICE NOGALES,NOGALES,AGUA ZARCA (FERROCARRIL),31.184719,-110.969169,Conectada,2.57,"31.16167, -110.9703",0,Nivel 2 (Medio)
3487,seguridad,ITAMA - CTE GUAYMAS,GUAYMAS,HEROICA GUAYMAS,27.925156,-110.89315,Conectada,0.97,"27.91950278, -110.9007333",0,Nivel 2 (Medio)
3488,seguridad,ITAMA - SAN LUIS RIO COLORADO,SAN LUIS RIO COLORADO,LA GRULLITA,32.424203,-114.795015,Conectada,1.63,"32.427675, -114.778164",0,Nivel 2 (Medio)
3490,seguridad,USP - UNIVERSIDAD DE LA SEGURIDAD PÚBLICA DEL ESTADO,Hermosillo,Hermosillo,29.013666,-110.960414,Conectada,2.48,"29.008651, -110.935527",0,Nivel 2 (Medio)
3491,seguridad,DESPACHO DEL TITULAR DE LA SECRETARÍA,Hermosillo,Hermosillo,29.091638,-110.975513,Conectada,0.01,"29.09162451, -110.9754325",0,Nivel 2 (Medio)
3495,seguridad,CENTRO ESTATAL DE INFORMACIÓN SOBRE SEGURIDAD PÚBLICA,Hermosillo,Hermosillo,29.091638,-110.975513,Conectada,0.01,"29.09162451, -110.9754325",0,Nivel 2 (Medio)
3496,seguridad,COORDINACIÓN ESTATAL DEL SISTEMA PENITENCIARIO,Hermosillo,Hermosillo,29.0251,-110.915564,Conectada,1.41,"29.01491188, -110.9241526",0,Nivel 2 (Medio)
3497,seguridad,C5I HERMOSILLO,Hermosillo,Hermosillo,29.064193,-111.048336,Conectada,0.05,"29.06376, -111.048102",0,Nivel 2 (Medio)
3498,seguridad,C5i GUAYMAS,GUAYMAS,HEROICA GUAYMAS,27.946172,-110.919099,Conectada,1.46,"27.941844, -110.905094",0,Nivel 2 (Medio)
3499,seguridad,C5I SAN LUIS RIO COLORADO,SAN LUIS RIO COLORADO,SAN LUIS RIO COLORADO,32.456568,-114.746231,Conectada,0.01,"32.456613, -114.746291",0,Nivel 2 (Medio)
3500,seguridad,C5I PUERTO PEÑASCO,PUERTO PEÑASCO,PUERTO PEÑASCO,31.334021,-113.529957,Conectada,0.01,"31.33396389, -113.52995",0,Nivel 2 (Medio)
3501,seguridad,C5I CANANEA,CANANEA,HEROICA CIUDAD DE CANANEA,30.985731,-110.277367,Conectada,1.16,"30.98961, -110.26602",0,Nivel 2 (Medio)
3502,seguridad,C5I AGUA PRIETA,AGUA PRIETA,AGUA PRIETA,31.319165,-109.557953,Conectada,0.01,"31.31913889, -109.5580556",0,Nivel 2 (Medio)
3503,seguridad,C5I OBREGON,Cajeme,Obregon,27.52596,-109.930065,Conectada,0.02,"27.52598056, -109.9302889",0,Nivel 2 (Medio)
3504,seguridad,C5I NAVOJOA,Navojoa,Navojoa,27.078889,-109.443481,Conectada,0.01,"27.07895278, -109.443525",0,Nivel 2 (Medio)
3505,seguridad,C5I NOGALES,Nogales,Nogales,31.290164,-110.951151,Conectada,0.01,"31.29011, -110.951213",0,Nivel 2 (Medio)
3506,seguridad,AGENCIA MINISTERIAL DE INVESTIGACIÓN CRIMINAL - NÁCORI CHICO,NACORI CHICO,NACORI CHICO,29.686992,-108.978963,Conectada,0.12,"29.68636, -108.97802",1,Nivel 1 (Bajo)
3507,seguridad,AGENCIA MINISTERIAL DE INVESTIGACIÓN CRIMINAL - TECORIPA,La Colorada ,Tecoripa,28.623606,-109.951543,Conectada,0.3,"28.62378, -109.9546",1,Nivel 1 (Bajo)
3508,seguridad,AGENCIA MINISTERIAL DE INVESTIGACIÓN CRIMINAL - ARIZPE,ARIZPE,ARIZPE,30.3321105,-110.173533,Conectada,0.89,"30.338364, -110.167683",1,Nivel 1 (Bajo)
3515,seguridad,AGENCIA MINISTERIAL DE INVESTIGACIÓN CRIMINAL - YÉCORA,YECORA,YECORA,28.376095,-108.921182,Conectada,0.59,"28.37264, -108.925702",1,Nivel 1 (Bajo)
3516,seguridad,GUARDIA NACIONAL - SAHUARIPA,Sahuaripa,Sahuaripa,29.030513,-109.258673,Conectada,1.35,"29.023243, -109.269806",1,Nivel 1 (Bajo)
3517,seguridad,COMANDANCIA MUNICIPAL - ROSARIO,ROSARIO,ROSARIO,27.842266,-109.374085,Conectada,0.38,"27.840604, -109.370759",1,Nivel 1 (Bajo)
3518,seguridad,COMANDANCIA MUNICIPAL - QUIRIEGO,QUIRIEGO,QUIRIEGO,27.520231,-109.254609,Conectada,0.33,"27.52069, -109.251259",1,Nivel 1 (Bajo)
3519,seguridad,COMANDANCIA MUNICIPAL - YÉCORA,YECORA,YECORA,28.371039,-108.927441,Conectada,0.25,"28.37264, -108.925702",1,Nivel 1 (Bajo)
3520,seguridad,COMANDANCIA MUNICIPAL - BACANORA,BACANORA,BACANORA,28.978132,-109.399728,Conectada,0.07,"28.977583, -109.399342",1,Nivel 1 (Bajo)
3521,seguridad,COMANDANCIA MUNICIPAL - SAHUARIPA,SAHUARIPA,SAHUARIPA,29.06430828,-109.2405697,Conectada,1.01,"29.05581, -109.23689",1,Nivel 1 (Bajo)
3522,seguridad,COMANDANCIA MUNICIPAL - ARIVECHI,ARIVECHI,ARIVECHI,28.92733773,-109.1876277,Conectada,0.13,"28.92847, -109.18732",1,Nivel 1 (Bajo)
3523,seguridad,BATALLON DE INFANTERIA 24 - HERMOSILLO,HERMOSILLO,HERMOSILLO,29.11678508,-110.9499297,Conectada,3.74,"29.09162451, -110.9754325",1,Nivel 1 (Bajo)
3524,seguridad,HOSPITAL MILITAR REGIONAL - HERMOSILLO,HERMOSILLO,HERMOSILLO,29.11563903,-110.9497081,Conectada,3.66,"29.09162451, -110.9754325",1,Nivel 1 (Bajo)
3525,seguridad,COMPAÑIA DE MANTENIMIENTO 16/A. - HERMOSILLO,HERMOSILLO,HERMOSILLO,29.11361166,-110.9468816,Conectada,3.7,"29.09162451, -110.9754325",1,Nivel 1 (Bajo)
3233,Salud,CENTRO DE SALUD RURAL ACONCHI,ACONCHI,ACONCHI,29.82632209,-110.227501,Sin conexión,0.73,"29.8262, -110.21989",0,Nivel 3 (Alto)
3248,Salud,CENTRO DE SALUD RURAL EL ZAPOTE,ALAMOS,EL ZAPOTE,26.77945191,-108.6906565,Sin conexión,21.53,"26.66351, -108.864288",0,Nivel 3 (Alto)
3178,Salud,BELEEM PITAHAYA,GUAYMAS,BEELEM PITAHAYA,27.77014187,-110.4372404,Conectada,9.77,"27.690069, -110.478103",0,Nivel 2 (Medio)
3179,Salud,CAAPS,HERMOSILLO,HERMOSILLO,29.09966891,-110.9753877,Conectada,0.89,"29.09162451, -110.9754325",0,Nivel 2 (Medio)
3180,Salud,CENTRO DE SALUD ALTAR,ALTAR,ALTAR,30.71523481,-111.8347816,Conectada,1.44,"30.70384167, -111.8277278",0,Nivel 2 (Medio)
3181,Salud,CENTRO DE SALUD BACUM,BACUM,BACUM,27.55500396,-110.0850782,Conectada,0.01,"27.5551, -110.085",0,Nivel 2 (Medio)
3182,Salud,CENTRO DE SALUD BENJAMIN HILL,BENJAMIN HILL,BENJAMIN HILL,30.16867212,-111.1172188,Conectada,0.1,"30.167956, -111.117789",0,Nivel 2 (Medio)
3183,Salud,CENTRO DE SALUD BLOCK 410,CAJEME,CD OBREGON,27.45816878,-109.924122,Conectada,0.84,"27.46464167, -109.9284222",0,Nivel 2 (Medio)
3184,Salud,CENTRO DE SALUD CANANEA,CANANEA,CANANEA,30.98379033,-110.3047997,Conectada,0.77,"30.9777, -110.308617",0,Nivel 2 (Medio)
3185,Salud,CENTRO DE SALUD CIUDAD DE LOS NIÑOS,HERMOSILLO,HERMOSILLO,29.0065914,-110.9213456,Conectada,0.92,"29.01221702, -110.9283082",0,Nivel 2 (Medio)
3186,Salud,CENTRO DE SALUD CUMPAS,CUMPAS,CUMPAS,29.99440099,-109.7827813,Conectada,0.69,"29.996425, -109.77598",0,Nivel 2 (Medio)
3187,Salud,CENTRO DE SALUD DOMINGO OLIVARES,HERMOSILLO,HERMOSILLO,29.08668964,-110.9535549,Conectada,1.2,"29.07631845, -110.9570658",0,Nivel 2 (Medio)
3188,Salud,CENTRO DE SALUD EMILIANO ZAPATA,HERMOSILLO,HERMOSILLO,29.04945113,-110.9630067,Conectada,1.78,"29.064011, -110.955496",0,Nivel 2 (Medio)
3189,Salud,CENTRO DE SALUD URBANO Y ESTABILIZACIÓN DE EMPALME,EMPALME,EMPALME,27.95863379,-110.7823197,Conectada,0.92,"27.959147, -110.79165",0,Nivel 2 (Medio)
3190,Salud,CENTRO DE SALUD ESPERANZA,CAJEME,ESPERANZA,27.58228456,-109.9298233,Conectada,2.1,"27.56626, -109.9411",0,Nivel 2 (Medio)
3191,Salud,CENTRO DE SALUD FLORESTA,HERMOSILLO,HERMOSILLO,29.12477449,-111.0209513,Conectada,2.78,"29.102933, -111.007014",0,Nivel 2 (Medio)
3192,Salud,CENTRO DE SALUD GUAYMAS NORTE,GUAYMAS,GUAYMAS,27.9463934,-110.9293663,Conectada,0.48,"27.94620556, -110.9342083",0,Nivel 2 (Medio)
3193,Salud,CENTRO DE SALUD HUATABAMPO,HUATABAMPO,HUATABAMPO,26.83583584,-109.6393042,Conectada,0.76,"26.84247222, -109.6411222",0,Nivel 2 (Medio)
3194,Salud,CENTRO DE SALUD IMURIS,IMURIS,IMURIS,30.7832664,-110.8534539,Conectada,0.64,"30.7887194, -110.85133",0,Nivel 2 (Medio)
3195,Salud,CENTRO DE SALUD LAS MINITAS,HERMOSILLO,HERMOSILLO,29.04536839,-110.9934893,Conectada,4.15,"29.06763827, -110.9592655",0,Nivel 2 (Medio)
3196,Salud,CENTRO DE SALUD LOMAS DE MADRID,HERMOSILLO,HERMOSILLO,29.13057798,-110.9767023,Conectada,1.72,"29.14361389, -110.9862722",0,Nivel 2 (Medio)
3197,Salud,CENTRO DE SALUD LOS NARANJOS,HERMOSILLO,HERMOSILLO,29.07737801,-110.9269038,Conectada,1.94,"29.06939286, -110.944628",0,Nivel 2 (Medio)
3198,Salud,CENTRO DE SALUD LOS OLIVOS,HERMOSILLO,HERMOSILLO,29.03177382,-110.976821,Conectada,4.07,"29.037639, -110.935456",0,Nivel 2 (Medio)
3199,Salud,CENTRO DE SALUD MIGUEL ALEMAN,HERMOSILLO,POBLADO MIGUEL ALEMAN,28.84131359,-111.4889727,Conectada,0.11,"28.84228, -111.48905",0,Nivel 2 (Medio)
3200,Salud,CENTRO DE SALUD NACO,NACO,NACO,31.32565506,-109.9462175,Conectada,0.14,"31.32499, -109.94746",0,Nivel 2 (Medio)
3201,Salud,CENTRO DE SALUD NACOZARI DE GARCIA,NACOZARI DE GARCIA,NACOZARI DE GARCIA,30.37253291,-109.6910883,Conectada,0.59,"30.37529, -109.68584",0,Nivel 2 (Medio)
3202,Salud,CENTRO DE SALUD NAVOJOA CENTRO,NAVOJOA,NAVOJOA,27.06833528,-109.4502526,Conectada,0.3,"27.06563326, -109.4497993",0,Nivel 2 (Medio)
3203,Salud,CENTRO DE SALUD NAVOJOA ORIENTE,NAVOJOA,NAVOJOA,27.0735468,-109.4182917,Conectada,1.1,"27.07407267, -109.42939239",0,Nivel 2 (Medio)
3204,Salud,CENTRO DE SALUD NOGALES,NOGALES,NOGALES,31.28930311,-110.9580546,Conectada,0.49,"31.28495, -110.95889",0,Nivel 2 (Medio)
3205,Salud,CENTRO DE SALUD OBREGÓN CENTRO,CAJEME,CD OBREGON,27.48707,-109.939154,Conectada,1.31,"27.49709444, -109.9322056",0,Nivel 2 (Medio)
3206,Salud,CENTRO DE SALUD OBREGÓN NORTE,CAJEME,CD OBREGON,27.51207451,-109.9216369,Conectada,1.77,"27.52598056, -109.9302889",0,Nivel 2 (Medio)
3225,Salud,HOSPITAL GENERAL DE NOGALES,NOGALES,NOGALES,31.30938881,-110.9442106,Sin conexión,0.76,"31.316111, -110.945833",0,Nivel 3 (Alto)
3208,Salud,CENTRO DE SALUD PEÑASCO,PUERTO PEÑASCO,PUERTO PEÑASCO,31.31972757,-113.5371295,Conectada,1.27,"31.32935585, -113.5298673",0,Nivel 2 (Medio)
3209,Salud,CENTRO DE SALUD PITIQUITO,PITIQUITO,PITIQUITO,30.67584999,-112.0518998,Conectada,0.2,"30.67713, -112.05045",0,Nivel 2 (Medio)
3210,Salud,CENTRO DE SALUD POBLADO MIGUEL ALEMAN 2,HERMOSILLO,HERMOSILLO,28.84943636,-111.501237,Conectada,1.32,"28.84294167, -111.4898444",0,Nivel 2 (Medio)
3211,Salud,CENTRO DE SALUD PROGRESO NORTE,HERMOSILLO,HERMOSILLO,29.14189273,-110.9849644,Conectada,0.23,"29.14361389, -110.9862722",0,Nivel 2 (Medio)
3212,Salud,CENTRO DE SALUD SAHUARO,HERMOSILLO,HERMOSILLO,29.10184051,-111.0057471,Conectada,0.17,"29.102933, -111.007014",0,Nivel 2 (Medio)
3213,Salud,CENTRO DE SALUD CON HOSPITAL SANTA ANA,SANTA ANA,SANTA ANA,30.54341884,-111.1227163,Conectada,0.17,"30.544323, -111.121223",0,Nivel 2 (Medio)
3214,Salud,CENTRO DE SALUD SANTA ISABEL,HERMOSILLO,HERMOSILLO,29.11833038,-110.9854271,Conectada,1.07,"29.11026111, -110.9913861",0,Nivel 2 (Medio)
3215,Salud,CENTRO DE SALUD SONOYTA,SONOYTA,SONOYTA,31.86214019,-112.8475114,Conectada,0.31,"31.864325, -112.8494722",0,Nivel 2 (Medio)
3216,Salud,CENTRO DE SALUD VILLA JUAREZ,BENITO JUAREZ,BENITO JUAREZ,27.13848004,-109.8517479,Conectada,2.42,"27.128213, -109.830136",0,Nivel 2 (Medio)
3217,Salud,HOSPITAL COMUNITARIO ALAMOS,ALAMOS,ALAMOS,27.02632661,-108.9432822,Conectada,0.74,"27.021836, -108.937803",0,Nivel 2 (Medio)
3218,Salud,HOSPITAL COMUNITARIO MOCTEZUMA,MOCTEZUMA,MOCTEZUMA,29.80210536,-109.6812957,Conectada,0.09,"29.80268, -109.68059",0,Nivel 2 (Medio)
3219,Salud,HOSPITAL COMUNITARIO URES,URES,URES,29.42512976,-110.3908577,Conectada,0.34,"29.42809, -110.38989",0,Nivel 2 (Medio)
3220,Salud,HOSPITAL GENERAL DE CABORCA,CABORCA,CABORCA,30.70414971,-112.1791371,Conectada,1.66,"30.715511, -112.167881",0,Nivel 2 (Medio)
3221,Salud,HOSPITAL GENERAL DE CANANEA,CANANEA,CANANEA,30.99833169,-110.2536216,Conectada,1.41,"30.98850278, -110.2630333",0,Nivel 2 (Medio)
3222,Salud,HOSPITAL GENERAL DE GUAYMAS,GUAYMAS,GUAYMAS,27.91852305,-110.9005203,Conectada,0.11,"27.91950278, -110.9007333",0,Nivel 2 (Medio)
3223,Salud,HOSPITAL GENERAL DEL BAJO RIO MAYO,HUATABAMPO,HUATABAMPO,26.84253804,-109.641174,Conectada,0.01,"26.84247222, -109.6411222",0,Nivel 2 (Medio)
3224,Salud,HOSPITAL GENERAL DE NAVOJOA,NAVOJOA,NAVOJOA,27.06006213,-109.4399213,Conectada,1.16,"27.06563326, -109.4497993",0,Nivel 2 (Medio)
3234,Salud,CENTRO DE SALUD RURAL COLONIA MORELOS,AGUA PRIETA,AGUA PRIETA,30.82728214,-109.2245979,Sin conexión,33.65,"30.894625, -109.568311",0,Nivel 3 (Alto)
3226,Salud,HOSPITAL GENERAL DE OBREGÓN,CAJEME,CD OBREGON,27.4836196,-109.9550201,Conectada,0,"27.4836, -109.955",0,Nivel 2 (Medio)
3227,Salud,HOSPITAL GENERAL PUERTO PEÑASCO,PUERTO PEÑASCO,PUERTO PEÑASCO,31.34137122,-113.5163813,Conectada,1.53,"31.33396389, -113.52995",0,Nivel 2 (Medio)
3228,Salud,HOSPITAL INFANTIL DEL ESTADO DE SONORA,HERMOSILLO,HERMOSILLO,29.11642766,-110.9717468,Conectada,2.03,"29.11026111, -110.9913861",0,Nivel 2 (Medio)
3229,Salud,HOSPITAL PSIQUIATRICO CARLOS NAVA,HERMOSILLO,HERMOSILLO,29.07151648,-110.9558313,Conectada,0.25,"29.07067222, -110.9533944",0,Nivel 2 (Medio)
3230,Salud,HOSPITAL PSIQUIATRICO CRUZ DEL NORTE,HERMOSILLO,HERMOSILLO,29.08103594,-111.0050833,Conectada,2.44,"29.102933, -111.007014",0,Nivel 2 (Medio)
3231,Salud,CENTRO DE SALUD RURAL LOMA DE GUAMUCHIL,CAJEME,LOMA DE GUAMUCHIL,27.61431905,-109.9842751,Conectada,6.83,"27.56626, -109.9411",0,Nivel 2 (Medio)
3232,Salud,HOSPITAL COMUNITARIO VICAM PUEBLO,GUAYMAS,VICAM PUEBLO,27.64715273,-110.2960852,Conectada,0.02,"27.647, -110.296",0,Nivel 2 (Medio)
3265,Salud,CENTRO DE SALUD RURAL BANAMICHI,BANAMICHI,BANAMICHI,30.00854721,-110.2167411,Conectada,0.2,"30.007164, -110.218019",0,Nivel 2 (Medio)
3266,Salud,CENTRO DE SALUD RURAL BAVIACORA,BAVIACORA,BAVIACORA,29.71343655,-110.1657422,Conectada,0.09,"29.7141899999999, -110.16544",0,Nivel 2 (Medio)
3287,Salud,CENTRO DE SALUD RURAL LA ATRAVEZADA,EMPALME,LA ATRAVEZADA,28.096451,-110.690013,Conectada,6.06,"28.075694, -110.747167",0,Nivel 2 (Medio)
3364,Salud,CENTRO DE SALUD RURAL SAHUARIPA,SAHUARIPA,SAHUARIPA,29.05031644,-109.2326433,Conectada,0.68,"29.05637, -109.23347",0,Nivel 2 (Medio)
3370,Salud,CENTRO DE SALUD RURAL ESTACION PESQUEIRA,SAN MIGUEL DE HORCASITAS,PESQUEIRA,29.3802486,-110.9014073,Conectada,12.6,"29.27303, -110.94341",0,Nivel 2 (Medio)
3391,Salud,CENTRO DE SALUD RURAL YECORA,YECORA,YECORA,28.3702408,-108.930958,Conectada,0.41,"28.373942, -108.930475",0,Nivel 2 (Medio)
3408,Salud,CENTRO DE SALUD URBANO CABORCA,CABORCA,CABORCA,30.71751841,-112.1790768,Conectada,1.09,"30.715511, -112.167881",0,Nivel 2 (Medio)
3420,Salud,UNEME-ENFERMEDADES CRONICAS OBREGON,CAJEME,CIUDAD OBREGON,27.45562057,-109.9432108,Conectada,1.77,"27.46464167, -109.9284222",0,Nivel 2 (Medio)
3425,Salud,HOSPITAL COMUNITARIO DE MAGDALENA,MAGDALENA,MAGDALENA  DE KINO,30.64212857,-110.9546661,Conectada,1.8,"30.6298, -110.96689",0,Nivel 2 (Medio)
3428,Salud,HOSPITAL GENERAL DEL BAJO RIO MAYO,HUATABAMPO,HUATABAMPO,26.84254762,-109.6413577,Conectada,0.01,"26.842562, -109.641426",0,Nivel 2 (Medio)
3430,Salud,CENTRO DE SALUD RURAL EMILIANO ZAPATA,CANANEA,EMILIANO ZAPATA,31.03163883,-110.1667731,Conectada,10.35,"30.98850278, -110.2630333",0,Nivel 2 (Medio)
3441,Salud,POLICLÍNICO HUATABAMPO,HUATABAMPO,HUATABAMPO,26.827206,-109.634829,Conectada,1.76,"26.820916667, -109.61855556",0,Nivel 2 (Medio)
3443,Salud,MÓDULO AGUA PRIETA,AGUA PRIETA,AGUA PRIETA,31.326924,-109.561059,Conectada,0.91,"31.31913889, -109.5580556",0,Nivel 2 (Medio)
3444,Salud,MÓDULO ÁLAMOS,ÁLAMOS,ÁLAMOS,27.0245302,-108.9374947,Conectada,0.3,"27.021836, -108.937803",0,Nivel 2 (Medio)
3445,Salud,MÓDULO BENITO JUÁREZ,BENITO JUÁREZ,VILLA JUÁREZ,27.12829073,-109.8455708,Conectada,1.53,"27.128213, -109.830136",0,Nivel 2 (Medio)
3446,Salud,MÓDULO CABORCA,CABORCA,CABORCA,30.71174062,-112.1559437,Conectada,0.61,"30.71350833, -112.1499222",0,Nivel 2 (Medio)
3447,Salud,MÓDULO CAJEME,CAJEME,CAJEME,27.46507216,-109.9292732,Conectada,0.1,"27.46464167, -109.9284222",0,Nivel 2 (Medio)
3448,Salud,MÓDULO CANANEA,CANANEA,CANANEA,30.98321984,-110.3035301,Conectada,0.78,"30.9777, -110.308617",0,Nivel 2 (Medio)
3449,Salud,MÓDULO CASA DE DÍA SNTE 54,HERMOSILLO,HERMOSILLO,29.10353419,-110.999603,Conectada,0.72,"29.102933, -111.007014",0,Nivel 2 (Medio)
3450,Salud,MÓDULO CENTRO DE GOBIERNO,HERMOSILLO,HERMOSILLO,29.06793857,-110.9578983,Conectada,0.07,"29.06757, -110.95845",0,Nivel 2 (Medio)
3451,Salud,MÓDULO COBACH VILLA DE SERIS,HERMOSILLO,HERMOSILLO,29.04377837,-110.9582943,Conectada,1.99,"29.051335, -110.939713",0,Nivel 2 (Medio)
3452,Salud,MÓDULO CUMPAS,CUMPAS,CUMPAS,29.99524158,-109.7822155,Conectada,0.61,"29.996425, -109.77598",0,Nivel 2 (Medio)
3453,Salud,MÓDULO EMPALME,EMPALME,EMPALME,27.9575081,-110.815454,Conectada,0.04,"27.957581, -110.815899",0,Nivel 2 (Medio)
3454,Salud,MÓDULO ETCHOJOA,ETCHOJOA,ETCHOJOA,26.91297855,-109.6268347,Conectada,0.18,"26.911617, -109.625892",0,Nivel 2 (Medio)
3455,Salud,MÓDULO GRANADOS,GRANADOS,GRANADOS,29.86330327,-109.3107002,Conectada,0.12,"29.86225, -109.31035",0,Nivel 2 (Medio)
3456,Salud,MÓDULO HUASABAS,HUÁSABAS,HUÁSABAS,29.904158,-109.299909,Conectada,0.2,"29.90431, -109.30196",0,Nivel 2 (Medio)
3466,Salud,MÓDULO SAHUARIPA,SAHUARIPA,SAHUARIPA,29.050151,-109.232214,Conectada,0.7,"29.05637, -109.23347",0,Nivel 2 (Medio)
3249,Salud,CASA DE SALUD RURAL GEROCOA,ALAMOS,GEROCOA CHICO (GEROCOA),26.81403248,-108.8999518,Sin conexión,12.1,"26.793755, -109.019689",0,Nivel 3 (Alto)
3457,Salud,MÓDULO HUÉPAC,HUÉPAC,HUÉPAC,29.91111701,-110.2129546,Conectada,0.14,"29.91147, -110.21156",0,Nivel 2 (Medio)
3458,Salud,MÓDULO IMURIS,IMURIS,IMURIS,30.777763,-110.859289,Conectada,0.23,"30.7773, -110.8616389",0,Nivel 2 (Medio)
3459,Salud,MÓDULO MAGDALENA,MAGDALENA,MAGDALENA,30.62917139,-110.9669658,Conectada,0.07,"30.6298, -110.96689",0,Nivel 2 (Medio)
3460,Salud,MÓDULO MOCTEZUMA,MOCTEZUMA,MOCTEZUMA,29.80128998,-109.6802651,Conectada,0.16,"29.80268, -109.68059",0,Nivel 2 (Medio)
3461,Salud,MÓDULO NACO,NACO,NACO,31.32966398,-109.9485878,Conectada,0.16,"31.33107222, -109.9482",0,Nivel 2 (Medio)
3462,Salud,MÓDULO NACOZARI,NACOZARI,NACOZARI,30.37217831,-109.6908939,Conectada,0.6,"30.37529, -109.68584",0,Nivel 2 (Medio)
3463,Salud,MÓDULO POBLADO MIGUEL ALEMAN,HERMOSILLO,POBLADO MIGUEL ALEMAN,28.84088068,-111.4752236,Conectada,1.36,"28.84228, -111.48905",0,Nivel 2 (Medio)
3464,Salud,MÓDULO PUEBLO YAQUI,CAJEME,PUEBLO YAQUI,27.3557573,-110.0355649,Conectada,0.17,"27.35423611, -110.035575",0,Nivel 2 (Medio)
3465,Salud,MÓDULO PUERTO PEÑASCO,PUERTO PEÑASCO,PUERTO PEÑASCO,31.31511051,-113.534858,Conectada,1.16,"31.305833, -113.540438",0,Nivel 2 (Medio)
3467,Salud,MÓDULO SAN IGNACIO RÍO MUERTO,SAN IGNACIO RÍO MUERTO,SAN IGNACIO RÍO MUERTO,27.41083085,-110.2430459,Conectada,0.37,"27.409988, -110.239434",0,Nivel 2 (Medio)
3468,Salud,MÓDULO SAN LUIS RÍO COLORADO,SAN LUIS RIO COLORADO,SAN LUIS RIO COLORADO,32.483357,-114.783908,Conectada,0.64,"32.47933611, -114.7790444",0,Nivel 2 (Medio)
3469,Salud,MÓDULO SANTA ANA,SANTA ANA,SANTA ANA,30.54136062,-111.1239213,Conectada,0.36,"30.54169, -111.12766",0,Nivel 2 (Medio)
3472,Salud,MÓDULO SONOYTA,SONOYTA,SONOYTA,31.866941,-112.855119,Conectada,0.61,"31.864325, -112.8494722",0,Nivel 2 (Medio)
3473,Salud,MÓDULO UNISON HERMOSILLO,HERMOSILLO,HERMOSILLO,29.083476,-110.960362,Conectada,0.86,"29.07631845, -110.9570658",0,Nivel 2 (Medio)
3474,Salud,MÓDULO URES,URES,URES,29.4285448,-110.3904176,Conectada,0.07,"29.42809, -110.38989",0,Nivel 2 (Medio)
3244,Salud,CENTRO DE SALUD RURAL EL TABELO,ALAMOS,EL TABELO,27.16377432,-108.9587897,Sin conexión,8.56,"27.21055, -108.89006",0,Nivel 3 (Alto)
3245,Salud,CENTRO DE SALUD RURAL LOS TANQUES,ALAMOS,LOS TANQUES,27.21049821,-108.8943576,Sin conexión,0.43,"27.21055, -108.89006",0,Nivel 3 (Alto)
3246,Salud,CENTRO DE SALUD RURAL TAPIZUELAS,ALAMOS,LAS TAPIZUELAS,26.66614582,-108.8635531,Sin conexión,0.3,"26.66351, -108.864288",0,Nivel 3 (Alto)
3247,Salud,CENTRO DE SALUD RURAL TECHOBAMPO,ALAMOS,TECHOBAMPO,27.3011917,-108.8855605,Sin conexión,10.09,"27.21055, -108.89006",0,Nivel 3 (Alto)
3235,Salud,CENTRO DE SALUD RURAL BURAPACO,ALAMOS,BURAPACO,27.5603044,-108.8824112,Sin conexión,34.42,"27.545293, -109.231119",0,Nivel 3 (Alto)
3236,Salud,CENTRO DE SALUD RURAL CERRO COLORADO,ALAMOS,CERRO COLORADO,26.76634998,-108.8220273,Sin conexión,12.18,"26.66351, -108.864288",0,Nivel 3 (Alto)
3237,Salud,CENTRO DE SALUD RURAL EL CHINAL,ALAMOS,EL CHINAL,26.68095919,-108.7011546,Sin conexión,16.33,"26.66351, -108.864288",0,Nivel 3 (Alto)
3238,Salud,CENTRO DE SALUD RURAL EL CHINO,ALAMOS,EL CHINO,26.57150452,-108.9752561,Sin conexión,0.01,"26.57152, -108.97534",0,Nivel 3 (Alto)
3239,Salud,CENTRO DE SALUD RURAL EL MAQUIPO,ALAMOS,EL MAQUIPO,26.72378688,-108.715564,Sin conexión,16.22,"26.66351, -108.864288",0,Nivel 3 (Alto)
3240,Salud,CENTRO DE SALUD RURAL MEXIQUILLO,ALAMOS,MEXIQUILLO,27.34898655,-108.9263291,Sin conexión,15.81,"27.21055, -108.89006",0,Nivel 3 (Alto)
3241,Salud,CENTRO DE SALUD RURAL MOCUZARIT,ALAMOS,- EL MOCÚZARIT (CONICÁRIT),27.21444105,-109.0967116,Sin conexión,0.23,"27.215093, -109.094535",0,Nivel 3 (Alto)
3242,Salud,CENTRO DE SALUD RURAL LOS MUERTOS,ALAMOS,LOS MUERTOS,26.74101938,-108.9111598,Sin conexión,9.8,"26.66351, -108.864288",0,Nivel 3 (Alto)
3243,Salud,CENTRO DE SALUD RURAL SAN BERNARDO,ALAMOS,SAN BERNARDO,27.4003373,-108.8469724,Sin conexión,21.53,"27.21055, -108.89006",0,Nivel 3 (Alto)
3250,Salud,CENTRO DE SALUD RURAL ARIVECHI,ARIVECHI,ARIVECHI,28.93070674,-109.1868744,Sin conexión,0.25,"28.92847, -109.18732",0,Nivel 3 (Alto)
3251,Salud,CENTRO DE SALUD RURAL TARACHI,ARIZPE,ARIVECHI,28.80620677,-108.9377458,Sin conexión,12.46,"28.741214, -109.041887",0,Nivel 3 (Alto)
3252,Salud,CENTRO DE SALUD RURAL ARIZPE,ARIZPE,ARIZPE,30.33987031,-110.1651452,Sin conexión,0.3,"30.338364, -110.167683",0,Nivel 3 (Alto)
3253,Salud,CENTRO DE SALUD RURAL BACANUCHI,ARIZPE,BACANUCHI,30.60494284,-110.2371379,Sin conexión,25.89,"30.632433, -109.968483",0,Nivel 3 (Alto)
3254,Salud,CENTRO DE SALUD RURAL CHINAPA,ARIZPE,CHINAPA,30.43760879,-110.0347962,Sin conexión,16.86,"30.338364, -110.167683",0,Nivel 3 (Alto)
3255,Salud,CENTRO DE SALUD RURAL SINOQUIPE,ARIZPE,SINOQUIPE,30.15710731,-110.2444575,Sin conexión,0.14,"30.157514, -110.245836",0,Nivel 3 (Alto)
3256,Salud,CENTRO DE SALUD RURAL ATIL,ATIL,ATIL,30.8445192,-111.5835741,Sin conexión,0.79,"30.847936, -111.576303",0,Nivel 3 (Alto)
3257,Salud,CENTRO DE SALUD RURAL BACADEHUACHI,BACADEHUACHI,BACADEHUACHI,29.80916643,-109.1436598,Sin conexión,0.1,"29.808589, -109.142825",0,Nivel 3 (Alto)
3258,Salud,CENTRO DE SALUD RURAL BACANORA,BACANORA,BACANORA,28.97855178,-109.3992277,Sin conexión,0.11,"28.977583, -109.399342",0,Nivel 3 (Alto)
3259,Salud,CENTRO DE SALUD RURAL BACERAC,BACERAC,BACERAC,30.35539836,-108.9301869,Sin conexión,0.26,"30.356653, -108.927858",0,Nivel 3 (Alto)
3260,Salud,CENTRO DE SALUD RURAL BACOACHI,BACOACHI,BACOACHI,30.631268,-109.971166,Sin conexión,0.29,"30.632433, -109.968483",0,Nivel 3 (Alto)
3261,Salud,CENTRO DE SALUD RURAL UNAMICHI,BACOACHI,UNAMICHI,30.67516678,-109.9859104,Sin conexión,5.04,"30.632433, -109.968483",0,Nivel 3 (Alto)
3262,Salud,CENTRO DE SALUD RURAL FCO.JAVIER MINA (CAMPO 60),BACUM,FCO. JAVIER MINA,27.45822022,-110.1133082,Sin conexión,0.01,"27.45816, -110.11326",0,Nivel 3 (Alto)
3263,Salud,CENTRO DE SALUD RURAL 1ERO. DE MAYO (CAMPO 77),BACUM,PRIMERO DE MAYO,27.38636996,-110.1210903,Sin conexión,8.02,"27.45816, -110.11326",0,Nivel 3 (Alto)
3264,Salud,CENTRO DE SALUD RURAL SAN JOSE DE BACUM,BACUM,SAN JOSE DE BACUM,27.51381507,-110.1419589,Sin conexión,3.15,"27.498163, -110.115354",0,Nivel 3 (Alto)
3267,Salud,CENTRO DE SALUD RURAL MAZOCAHUI,BAVIACORA,MAZOCAHUI,29.53784765,-110.1194014,Sin conexión,17.36,"29.461111, -110.275556",0,Nivel 3 (Alto)
3268,Salud,CENTRO DE SALUD RURAL BAVISPE,BAVISPE,BAVISPE,30.4794,-108.941,Sin conexión,0.25,"30.47913, -108.94358",0,Nivel 3 (Alto)
3269,Salud,CENTRO DE SALUD RURAL SAN MIGUELITO,BAVISPE,SAN MIGUELITO,30.51629978,-108.9680018,Sin conexión,0.18,"30.516485, -108.969837",0,Nivel 3 (Alto)
3270,Salud,CENTRO DE SALUD RURAL EL DIAMANTE,CABORCA,EL DIAMANTE,30.84531655,-112.6378301,Sin conexión,8.44,"30.805425, -112.7130333",0,Nivel 3 (Alto)
3271,Salud,CENTRO DE SALUD RURAL ORIBE DE ALBA,CABORCA,ORIBE DE ALBA,30.93676447,-113.0112461,Sin conexión,0.06,"30.93714, -113.01164",0,Nivel 3 (Alto)
3272,Salud,CENTRO DE SALUD RURAL COL. ALLENDE,CAJEME,ALLENDE,27.19066131,-109.9103919,Sin conexión,0.02,"27.190529, -109.910359",0,Nivel 3 (Alto)
3273,Salud,CENTRO DE SALUD RURAL BUENAVISTA,ARIZPE,BUENA VISTA,27.80067178,-109.902894,Sin conexión,26.34,"27.56626, -109.9411",0,Nivel 3 (Alto)
3274,Salud,CENTRO DE SALUD RURAL CUAUHTEMOC (CAMPO 5),CAJEME,CUAHTEMOC (CAMPO 5),27.43316892,-110.0194183,Sin conexión,8.48,"27.4836, -109.955",0,Nivel 3 (Alto)
3275,Salud,CENTRO DE SALUD RURAL MORELOS 1,CAJEME,MORELOS UNO,27.27842744,-109.9968061,Sin conexión,5.24,"27.26486024, -109.9459878",0,Nivel 3 (Alto)
3276,Salud,CENTRO DE SALUD RURAL QUECHEHUECA,CAJEME,QUETCHEHUECA,27.26300561,-109.943666,Sin conexión,0.31,"27.26486024, -109.9459878",0,Nivel 3 (Alto)
3277,Salud,CENTRO DE SALUD RURAL 31 DE OCTUBRE (CAMPO 16),CAJEME,31 DE OCTUBRE,27.43319469,-110.0193904,Sin conexión,8.47,"27.4836, -109.955",0,Nivel 3 (Alto)
3278,Salud,CENTRO DE SALUD RURAL PUEBLO YAQUI,CAJEME,PUEBLO YAQUI,27.35610494,-110.0362185,Sin conexión,0.22,"27.35423611, -110.035575",0,Nivel 3 (Alto)
3279,Salud,CENTRO DE SALUD RURAL CARBO,CARBO,CARBO,29.68114462,-110.9566473,Sin conexión,0.15,"29.68045, -110.957931",0,Nivel 3 (Alto)
3280,Salud,CENTRO DE SALUD RURAL LA COLORADA,LA COLORADA,LA COLORADA,28.80276228,-110.5804726,Sin conexión,18.86,"28.766305, -110.769459",0,Nivel 3 (Alto)
3281,Salud,CENTRO DE SALUD RURAL TECORIPA,LA COLORADA,TECORIPA,28.62413196,-109.9540191,Sin conexión,0.07,"28.62378, -109.9546",0,Nivel 3 (Alto)
3282,Salud,CENTRO DE SALUD RURAL CUCURPE,CUCURPE,CUCURPE,30.32892714,-110.7062243,Sin conexión,0.23,"30.330397, -110.704533",0,Nivel 3 (Alto)
3283,Salud,CENTRO DE SALUD RURAL LOS HOYOS,CUMPAS,LOS HOYOS,30.12888275,-109.7818779,Sin conexión,14.56,"29.998067, -109.775114",0,Nivel 3 (Alto)
3284,Salud,CENTRO DE SALUD RURAL JECORI,CUMPAS,JECORI,29.9394606,-109.7397417,Sin conexión,0.04,"29.939763, -109.739574",0,Nivel 3 (Alto)
3285,Salud,CENTRO DE SALUD RURAL DIVISADEROS,DIVISADEROS,DIVISADEROS,29.61361225,-109.4679352,Sin conexión,0.21,"29.615191, -109.46673",0,Nivel 3 (Alto)
3286,Salud,CENTRO DE SALUD RURAL ANTONIO ROSALES,CAJEME,ANTONIO ROSALES,28.07753854,-110.6128062,Sin conexión,0.02,"28.077694, -110.612917",0,Nivel 3 (Alto)
3299,Salud,CENTRO DE SALUD RURAL SAN PEDRO NUEVO,ETCHOJOA,SAN PEDRO NUEVO,27.02132698,-109.6300372,Sin conexión,5.28,"26.979011, -109.654255",0,Nivel 3 (Alto)
3288,Salud,CENTRO DE SALUD RURAL ETCHOJOA,ETCHOJOA,ETCHOJOA,26.91045824,-109.6305307,Sin conexión,0.48,"26.911617, -109.625892",0,Nivel 3 (Alto)
3289,Salud,CENTRO DE SALUD RURAL BACAME NUEVO,ETCHOJOA,BACAME NUEVO,27.15859033,-109.5898481,Sin conexión,9.79,"27.093839, -109.656901",0,Nivel 3 (Alto)
3290,Salud,CENTRO DE SALUD RURAL BACOBAMPO,ETCHOJOA,BACOBAMPO,26.97886823,-109.6582815,Sin conexión,0.2,"26.97865556, -109.6562833",0,Nivel 3 (Alto)
3291,Salud,CENTRO DE SALUD RURAL BASCONCOBE,ETCHOJOA,BASCONCOBE,26.95099009,-109.6711255,Sin conexión,3.41,"26.97865556, -109.6562833",0,Nivel 3 (Alto)
3292,Salud,CENTRO DE SALUD RURAL LA BOCANA,ETCHOJOA,LA BOCANA,26.8867143,-109.6713922,Sin conexión,5.29,"26.911617, -109.625892",0,Nivel 3 (Alto)
3293,Salud,CENTRO DE SALUD RURAL BUAYSIACOBE,ETCHOJOA,BUAYSIACOBE,27.058919,-109.683983,Sin conexión,0.01,"27.05884, -109.68408",0,Nivel 3 (Alto)
3294,Salud,CENTRO DE SALUD RURAL CHUCARIT,ETCHOJOA,CHUCARIT,27.03409226,-109.5853986,Sin conexión,7.93,"27.074443, -109.65144",0,Nivel 3 (Alto)
3295,Salud,CENTRO DE SALUD RURAL JITONHUECA,ETCHOJOA,JITONHUECA,27.06059433,-109.6046164,Sin conexión,4.86,"27.083333, -109.646555",0,Nivel 3 (Alto)
3296,Salud,CENTRO DE SALUD RURAL MOCORUA,ETCHOJOA,MOCORÚA,26.95779899,-109.7311061,Sin conexión,4.25,"26.990163, -109.708276",0,Nivel 3 (Alto)
3297,Salud,CENTRO DE SALUD RURAL EL RODEO,ETCHOJOA,EL RODEO,27.01699236,-109.6429794,Sin conexión,4.37,"26.979011, -109.654255",0,Nivel 3 (Alto)
3298,Salud,CENTRO DE SALUD RURAL EL SAHUARAL,ETCHOJOA,EL SAHUARAL,26.92656038,-109.6646999,Sin conexión,4.19,"26.911617, -109.625892",0,Nivel 3 (Alto)
3300,Salud,CENTRO DE SALUD RURAL FRONTERAS,FRONTERAS,FRONTERAS,30.89719387,-109.5600066,Sin conexión,0.84,"30.894625, -109.568311",0,Nivel 3 (Alto)
3301,Salud,CENTRO DE SALUD RURAL ESQUEDA,FRONTERAS,ESQUEDA,30.72371779,-109.587577,Sin conexión,19.09,"30.894625, -109.568311",0,Nivel 3 (Alto)
3302,Salud,CENTRO DE SALUD RURAL GRANADOS,GRANADOS,GRANADOS,29.86411287,-109.30715,Sin conexión,0.37,"29.86225, -109.31035",0,Nivel 3 (Alto)
3303,Salud,CENTRO DE SALUD RURAL FRANCISCO MARQUEZ,GUAYMAS,FRANCISCO MÁRQUEZ,28.15793658,-110.5908041,Sin conexión,0.06,"28.1576944, -110.5913889",0,Nivel 3 (Alto)
3304,Salud,CENTRO DE SALUD RURAL LA MISA,GUAYMAS,LA MISA,28.37522536,-110.5316772,Sin conexión,0.05,"28.37488, -110.53142",0,Nivel 3 (Alto)
3305,Salud,CENTRO DE SALUD RURAL POTAM,GUAYMAS,POTAM,27.62356487,-110.416107,Sin conexión,0.27,"27.625629, -110.417627",0,Nivel 3 (Alto)
3306,Salud,CENTRO DE SALUD URBANO PRIMERO HERMOSILLO,HERMOSILLO,HERMOSILLO,29.12936335,-110.9973565,Sin conexión,1.92,"29.14361389, -110.9862722",0,Nivel 3 (Alto)
3307,Salud,CENTRO DE SALUD RURAL PUNTA CHUECA,HERMOSILLO,PUNTA CHUECA,29.01397234,-112.1607146,Sin conexión,0.26,"29.01624, -112.16025",0,Nivel 3 (Alto)
3308,Salud,CENTRO DE SALUD RURAL BAHIA DE KINO,HERMOSILLO,BAHIA DE KINO,29.14777595,-110.984143,Sin conexión,0.51,"29.14361389, -110.9862722",0,Nivel 3 (Alto)
3309,Salud,CENTRO DE SALUD RURAL PLAN DE AYALA,HERMOSILLO,PLAN DE AYALA,28.56968977,-111.5558359,Sin conexión,21.73,"28.75333, -111.632058",0,Nivel 3 (Alto)
3310,Salud,CENTRO DE SALUD RURAL SAN PEDRO EL SAUCITO,HERMOSILLO,SAN PEDRO SAUCITO,29.1803207,-110.8812465,Sin conexión,9.37,"29.196339, -110.7865361",0,Nivel 3 (Alto)
3311,Salud,CENTRO DE SALUD RURAL LA VICTORIA,HERMOSILLO,LA VICTORIA,29.12261318,-110.8916738,Sin conexión,7.84,"29.06939286, -110.944628",0,Nivel 3 (Alto)
3312,Salud,CENTRO DE SALUD RURAL HUACHINERA,HUACHINERA,HUACHINERA,30.20894252,-108.9589212,Sin conexión,0.22,"30.207014, -108.959606",0,Nivel 3 (Alto)
3313,Salud,CENTRO DE SALUD RURAL ARIBABI,HUACHINERA,ARIBABI,30.06926951,-109.0866067,Sin conexión,0.51,"30.07004, -109.091843",0,Nivel 3 (Alto)
3314,Salud,CENTRO DE SALUD RURAL HUASABAS,HUASABAS,HUASABAS,29.9051711,-109.2998407,Sin conexión,0.23,"29.90431, -109.30196",0,Nivel 3 (Alto)
3315,Salud,CENTRO DE SALUD RURAL LAS BOCAS,HUATABAMPO,LAS BOCAS,26.59500827,-109.335506,Sin conexión,0.01,"26.59506, -109.33547",0,Nivel 3 (Alto)
3316,Salud,CENTRO DE SALUD RURAL EL CARO,HUATABAMPO,EL CARO,26.86572839,-109.7145372,Sin conexión,7.7,"26.842562, -109.641426",0,Nivel 3 (Alto)
3317,Salud,CENTRO DE SALUD RURAL CITAVARO,HUATABAMPO,CITAVARO,26.87856273,-109.7096723,Sin conexión,7.86,"26.842562, -109.641426",0,Nivel 3 (Alto)
3318,Salud,CENTRO DE SALUD RURAL LA ESQUINA,HUATABAMPO,LA ESQUINA,26.8005,-109.717,Sin conexión,8.84,"26.842562, -109.641426",0,Nivel 3 (Alto)
3319,Salud,CENTRO DE SALUD RURAL FRANCISCO SARABIA,HUATABAMPO,FRANCISCO SARABIA,26.5123,-109.105,Sin conexión,0.45,"26.508286, -109.104936",0,Nivel 3 (Alto)
3320,Salud,CENTRO DE SALUD RURAL TTE. JUAN DE LA BARRERA,HUATABAMPO,JUAN DE LA BARRERA,26.40934279,-109.0949114,Sin conexión,6.67,"26.427719, -109.031198",0,Nivel 3 (Alto)
3321,Salud,CENTRO DE SALUD RURAL EL JUPARE,HUATABAMPO,JÚPARE,26.801317,-109.7034438,Sin conexión,7.68,"26.842562, -109.641426",0,Nivel 3 (Alto)
3322,Salud,CENTRO DE SALUD RURAL ETCHOROPO,HUATABAMPO,ETCHOROPO,26.76566347,-109.681801,Sin conexión,8.78,"26.820916667, -109.61855556",0,Nivel 3 (Alto)
3323,Salud,CENTRO DE SALUD RURAL MELCHOR OCAMPO,HUATABAMPO,MELCHOR OCAMPO,26.53452608,-109.1765308,Sin conexión,0.01,"26.53461, -109.17651",0,Nivel 3 (Alto)
3324,Salud,CENTRO DE SALUD RURAL MORONCARIT,HUATABAMPO,MORONCARIT,26.73963907,-109.6130787,Sin conexión,9.05,"26.820916667, -109.61855556",0,Nivel 3 (Alto)
3325,Salud,CENTRO DE SALUD RURAL LAS PARRAS,HUATABAMPO,LAS PARRAS,26.83876738,-109.716988,Sin conexión,7.51,"26.842562, -109.641426",0,Nivel 3 (Alto)
3326,Salud,CENTRO DE SALUD RURAL POZO DULCE,HUATABAMPO,POZO DULCE,26.84533972,-109.7508619,Sin conexión,10.86,"26.842562, -109.641426",0,Nivel 3 (Alto)
3327,Salud,CENTRO DE SALUD RURAL VENUSTIANO CARRANZA,HUATABAMPO,VENUSTIANO CARRANZA,26.422946,-109.030271,Sin conexión,0.54,"26.427719, -109.031198",0,Nivel 3 (Alto)
3328,Salud,CENTRO DE SALUD RURAL YAVARITOS,HUATABAMPO,YAVARITOS,26.779108,-109.368831,Sin conexión,0,"26.77914, -109.36883",0,Nivel 3 (Alto)
3329,Salud,CENTRO DE SALUD RURAL YAVAROS,HUATABAMPO,YAVAROS,26.70519991,-109.5202078,Sin conexión,16.15,"26.820916667, -109.61855556",0,Nivel 3 (Alto)
3330,Salud,CENTRO DE SALUD RURAL EJ. 10 DE ABRIL,HUATABAMPO,10 DE ABRIL,26.57854538,-109.1641129,Sin conexión,2.99,"26.60396, -109.1739",0,Nivel 3 (Alto)
3331,Salud,CENTRO DE SALUD RURAL HUEPAC,HUEPAC,HUEPAC,29.91197037,-110.2138426,Sin conexión,0.23,"29.91147, -110.21156",0,Nivel 3 (Alto)
3332,Salud,CENTRO DE SALUD RURAL TERRENATE,IMURIS,TERRENATE,30.72877084,-110.9211773,Sin conexión,6.51,"30.67032222, -110.9166611",0,Nivel 3 (Alto)
3333,Salud,CENTRO DE SALUD RURAL SAN IGNACIO DE LOYOLA,MAGDALENA,SAN IGNACIO DE LOYOLA,30.69554966,-110.9234573,Sin conexión,2.88,"30.67032222, -110.9166611",0,Nivel 3 (Alto)
3334,Salud,CENTRO DE SALUD RURAL MAZATAN,MAZATAN,MAZATAN,29.00792611,-110.1379812,Sin conexión,0.34,"29.00672, -110.13476",0,Nivel 3 (Alto)
3335,Salud,CENTRO DE SALUD RURAL NACORI CHICO,NACORI CHICO,NACORI CHICO,29.68807551,-108.9819387,Sin conexión,0.28,"29.687128, -108.984583",0,Nivel 3 (Alto)
3336,Salud,CENTRO DE SALUD RURAL MESA DE 3 RIOS,NACORI CHICO,MESA DE TRES RIOS,29.84140838,-108.7118099,Sin conexión,30.94,"29.68636, -108.97802",0,Nivel 3 (Alto)
3337,Salud,CENTRO DE SALUD RURAL CAMOA,NAVOJOA,CAMOA,27.2238183,-109.2580204,Sin conexión,15.96,"27.083018, -109.289376",0,Nivel 3 (Alto)
3338,Salud,CENTRO DE SALUD RURAL FUNDICION,NAVOJOA,FUNDIICION,27.33056951,-109.7383736,Sin conexión,0.01,"27.33064, -109.73827",0,Nivel 3 (Alto)
3339,Salud,CENTRO DE SALUD RURAL MASIACA,NAVOJOA,MASIACA,26.76339589,-109.2351187,Sin conexión,0.03,"26.763306, -109.234861",0,Nivel 3 (Alto)
3340,Salud,CENTRO DE SALUD RURAL NACHUQUIS,NAVOJOA,NACHUQUIS,27.08113654,-109.5434046,Sin conexión,4.39,"27.068219444, -109.50155556",0,Nivel 3 (Alto)
3341,Salud,CENTRO DE SALUD RURAL COMISARIA ROSALES,NAVOJOA,ROSALES,27.12921305,-109.4379512,Sin conexión,3.15,"27.127718, -109.469734",0,Nivel 3 (Alto)
3342,Salud,CENTRO DE SALUD RURAL SAN JOSE MASIACA,NAVOJOA,SAN JOSE MASIACA,26.74456683,-109.2460503,Sin conexión,2.36,"26.763306, -109.234861",0,Nivel 3 (Alto)
3343,Salud,CENTRO DE SALUD RURAL TESIA,NAVOJOA,TESIA,27.16532378,-109.3691949,Sin conexión,10.79,"27.127718, -109.469734",0,Nivel 3 (Alto)
3344,Salud,CENTRO DE SALUD RURAL TETAPECHE,NAVOJOA,TETAPECHE,27.204336,-109.3622607,Sin conexión,13.62,"27.127718, -109.469734",0,Nivel 3 (Alto)
3345,Salud,CENTRO DE SALUD RURAL SAPOMORA,NAVOJOA,SAPOMORA,27.04783869,-109.499042,Sin conexión,2.28,"27.068219444, -109.50155556",0,Nivel 3 (Alto)
3346,Salud,CENTRO DE SALUD RURAL BACABACHI,NAVOJOA,BACABACHI,26.89186383,-109.3935301,Sin conexión,0.47,"26.891989, -109.398275",0,Nivel 3 (Alto)
3347,Salud,CENTRO DE SALUD RURAL LOS BUAYUMS,NAVOJOA,LOS BUAYUMS,26.86366855,-109.4325978,Sin conexión,2.32,"26.878814, -109.448692",0,Nivel 3 (Alto)
3348,Salud,CENTRO DE SALUD RURAL SANTA MARIA DEL BUARAJE,NAVOJOA,SANTA MARÍA DEL BUARAJE,27.30288807,-109.8027536,Sin conexión,0.01,"27.30295, -109.80285",0,Nivel 3 (Alto)
3349,Salud,CENTRO DE SALUD RURAL SAN IGNACIO COHUIRIMPO,NAVOJOA,PUENTE SAN IGNACIO,27.0699278,-109.4866871,Sin conexión,1.48,"27.068219444, -109.50155556",0,Nivel 3 (Alto)
3350,Salud,CENTRO DE SALUD RURAL CIBUTA,NOGALES,CIBUTA,31.06170204,-110.8982876,Sin conexión,13.06,"31.16167, -110.9703",0,Nivel 3 (Alto)
3351,Salud,CENTRO DE SALUD RURAL ONAVAS,ONAVAS,ONAVAS,28.46169527,-109.5296837,Sin conexión,0.19,"28.460069, -109.528962",0,Nivel 3 (Alto)
3352,Salud,CENTRO DE SALUD RURAL OPODEPE,OPODEPE,OPODEPE,29.92580228,-110.6292409,Sin conexión,0.33,"29.925443, -110.625861",0,Nivel 3 (Alto)
3353,Salud,CENTRO DE SALUD RURAL QUEROBABI,OPODEPE,QUEROBABI,30.05109025,-111.030407,Sin conexión,0.04,"30.050978, -111.03",0,Nivel 3 (Alto)
3354,Salud,CENTRO DE SALUD RURAL OQUITOA,OQUITOA,OQUITOA,30.74089521,-111.7348681,Sin conexión,0.01,"30.7409, -111.7348",0,Nivel 3 (Alto)
3355,Salud,CENTRO DE SALUD RURAL DESEMBOQUE DE LOS SERIS,PITIQUITO,DESEMBOQUE DE LOS SERIS,29.50530815,-112.3975939,Sin conexión,0.17,"29.50634, -112.39627",0,Nivel 3 (Alto)
3356,Salud,CENTRO DE SALUD RURAL FELIX GOMEZ,PITIQUITO,FELIX GOMEZ,29.83714525,-111.4793423,Sin conexión,49.39,"30.050978, -111.03",0,Nivel 3 (Alto)
3357,Salud,CENTRO DE SALUD RURAL PUERTO LIBERTAD,PITIQUITO,PUERTO LIBERTAD,29.90517149,-112.683902,Sin conexión,52.33,"29.50634, -112.39627",0,Nivel 3 (Alto)
3358,Salud,CENTRO DE SALUD RURAL QUIRIEGO,QUIRIEGO,QUIRIEGO,27.51991045,-109.2508452,Sin conexión,0.09,"27.52065, -109.251129",0,Nivel 3 (Alto)
3359,Salud,CENTRO DE SALUD RURAL BATACOSA,QUIRIEGO,BATACOSA,27.5295512,-109.4007182,Sin conexión,14.77,"27.52069, -109.251259",0,Nivel 3 (Alto)
3360,Salud,CENTRO DE SALUD RURAL TEPAHUI,QUIRIEGO,TEPAHUI,27.39520234,-109.1840179,Sin conexión,0.3,"27.396111, -109.181111",0,Nivel 3 (Alto)
3361,Salud,CENTRO DE SALUD RURAL RAYON,RAYON,RAYON,29.71306455,-110.5674251,Sin conexión,0.61,"29.714677, -110.5735",0,Nivel 3 (Alto)
3362,Salud,CENTRO DE SALUD RURAL ROSARIO TESOPACO,ROSARIO,ROSARIO,27.84161774,-109.3688143,Sin conexión,0.22,"27.840585, -109.370693",0,Nivel 3 (Alto)
3363,Salud,CENTRO DE SALUD RURAL NURI,ROSARIO,NURI,28.11605569,-109.3281235,Sin conexión,0.22,"28.11424, -109.3272",0,Nivel 3 (Alto)
3365,Salud,CENTRO DE SALUD RURAL SAN FELIPE DE JESUS,SAN FELIPE DE JESUS,SAN FELIPE DE JESUS,29.86178682,-110.2384891,Sin conexión,0.11,"29.86259, -110.239133",0,Nivel 3 (Alto)
3366,Salud,CENTRO DE SALUD RURAL SAN JAVIER,SAN JAVIER,SAN JAVIER,28.59515016,-109.7401446,Sin conexión,0.04,"28.59521, -109.73969",0,Nivel 3 (Alto)
3367,Salud,CENTRO DE SALUD RURAL GOLFO SANTA CLARA,SAN LUIS RIO COLORADO,GOLFO DE SANTA CLARA,31.68638784,-114.5002538,Sin conexión,0.13,"31.68750815, -114.50041433",0,Nivel 3 (Alto)
3368,Salud,CENTRO DE SALUD RURAL LUIS B. SANCHEZ,SAN LUIS RIO COLORADO,INGENIERO LUIS B. SÁNCHEZ,32.2008595,-115.0004966,Sin conexión,1.07,"32.20119, -114.98914",0,Nivel 3 (Alto)
3369,Salud,CENTRO DE SALUD RURAL SAN MIGUEL DE HORCASITAS,SAN MIGUEL DE HORCASITAS,SAN MIGUEL DE HORCASITAS,29.48779602,-110.7270098,Sin conexión,0.13,"29.487305, -110.725787",0,Nivel 3 (Alto)
3371,Salud,CENTRO DE SALUD RURAL SAN PEDRO DE LA CUEVA,SAN PEDRO DE LA CUEVA,SAN PEDRO DE LA CUEVA,29.28751819,-109.7374611,Sin conexión,0.64,"29.288686, -109.743956",0,Nivel 3 (Alto)
3372,Salud,CENTRO DE SALUD RURAL ESTACION LLANO,SANTA ANA,EL LLANO,30.36159894,-111.1050636,Sin conexión,13.7,"30.45145, -111.20288",0,Nivel 3 (Alto)
3373,Salud,CENTRO DE SALUD RURAL SANTA CRUZ,SANTA CRUZ,SANTA CRUZ,31.2318824,-110.5960163,Sin conexión,0.62,"31.237444, -110.595678",0,Nivel 3 (Alto)
3374,Salud,CENTRO DE SALUD RURAL MIGUEL HIDALGO (SAN LAZARO),SANTA CRUZ,MIGUEL HIDALGO (SAN LÁZARO),31.14526712,-110.6405734,Sin conexión,11.1,"31.237444, -110.595678",0,Nivel 3 (Alto)
3375,Salud,CENTRO DE SALUD RURAL SARIC,SARIC,SARIC,31.10310686,-111.3805678,Sin conexión,0.2,"31.103939, -111.382436",0,Nivel 3 (Alto)
3376,Salud,CENTRO DE SALUD RURAL SASABE,SARIC,SASABE,31.47209599,-111.5472033,Sin conexión,0.22,"31.470086, -111.547419",0,Nivel 3 (Alto)
3377,Salud,CENTRO DE SALUD RURAL SOYOPA,SOYOPA,SOYOPA,28.76240934,-109.6372941,Sin conexión,0.09,"28.761941, -109.636582",0,Nivel 3 (Alto)
3378,Salud,CENTRO DE SALUD RURAL SAN ANTONIO DE LA HUERTA,SOYOPA,SAN ANTONIO DE LA HUERTA,28.46168584,-109.5296784,Sin conexión,0.19,"28.460069, -109.528962",0,Nivel 3 (Alto)
3379,Salud,CENTRO DE SALUD RURAL TONICHI,SOYOPA,TONICHI,28.60118508,-109.5661489,Sin conexión,0.09,"28.601828, -109.565667",0,Nivel 3 (Alto)
3380,Salud,CENTRO DE SALUD RURAL SUAQUI GRANDE,SUAQUI GRANDE,SUAQUI GRANDE,28.39585803,-109.8885225,Sin conexión,0.35,"28.394783, -109.891928",0,Nivel 3 (Alto)
3381,Salud,CENTRO DE SALUD RURAL TEPACHE,TEPACHE,TEPACHE,29.53619764,-109.5334095,Sin conexión,0.88,"29.529121, -109.5294",0,Nivel 3 (Alto)
3382,Salud,CENTRO DE SALUD RURAL TRINCHERAS,TRINCHERAS,TRINCHERAS,30.39807582,-111.5323602,Sin conexión,0.34,"30.39929, -111.5291",0,Nivel 3 (Alto)
3383,Salud,CENTRO DE SALUD RURAL PUEBLO NUEVO ( NVO OCUCA),TRINCHERAS,PUEBLO NUEVO (PUEBLO NUEVO OCUCA),30.39680633,-111.5277851,Sin conexión,0.3,"30.39929, -111.5291",0,Nivel 3 (Alto)
3384,Salud,CENTRO DE SALUD RURAL TUBUTAMA,TUBUTAMA,TUBUTAMA,30.88592999,-111.4632473,Sin conexión,11.59,"30.847936, -111.576303",0,Nivel 3 (Alto)
3385,Salud,CENTRO DE SALUD RURAL PUEBLO DE ALAMOS,URES,PUEBLO DE ALAMOS,29.2061,-110.141,Sin conexión,0.42,"29.209897, -110.141306",0,Nivel 3 (Alto)
3386,Salud,CENTRO DE SALUD RURAL RANCHO VIEJO,URES,RANCHO VIEJO,29.12754398,-110.3138413,Sin conexión,13.93,"29.093878, -110.175761",0,Nivel 3 (Alto)
3387,Salud,CENTRO DE SALUD RURAL VILLA HIDALGO,VILLA HIDALGO,VILLA HIDALGO,30.16085396,-109.3200507,Sin conexión,0.65,"30.166433, -109.322178",0,Nivel 3 (Alto)
3388,Salud,CENTRO DE SALUD RURAL SAN JUAN DEL RIO,VILLA HIDALGO,SAN JUAN DEL RIO,30.30334139,-109.3517727,Sin conexión,15.46,"30.1663611, -109.32425",0,Nivel 3 (Alto)
3389,Salud,CENTRO DE SALUD RURAL VILLA PESQUEIRA,VILLA PESQUEIRA,VILLA PESQUEIRA (MÁTAPE),29.11761909,-109.9674748,Sin conexión,0.18,"29.118272, -109.969133",0,Nivel 3 (Alto)
3390,Salud,CENTRO DE SALUD RURAL NACORI GRANDE,VILLA PESQUEIRA,NACORI GRANDE,29.06082565,-110.0590486,Sin conexión,0.14,"29.060281, -110.057739",0,Nivel 3 (Alto)
3392,Salud,CENTRO DE SALUD RURAL MAYCOBA,YECORA,MAYCOBA,28.39168108,-108.6595584,Sin conexión,26.12,"28.37264, -108.925702",0,Nivel 3 (Alto)
3393,Salud,CENTRO DE SALUD RURAL SANTA ROSA,YECORA,SANTA ROSA,28.47516878,-109.1044987,Sin conexión,13.07,"28.375794, -109.033189",0,Nivel 3 (Alto)
3394,Salud,CENTRO DE SALUD RURAL JECOPACO,BENITO JUAREZ,JECOPACO,27.1999726,-109.7670369,Sin conexión,6.52,"27.258411, -109.761846",0,Nivel 3 (Alto)
3395,Salud,CENTRO DE SALUD RURAL PAREDON COLORADO,BENITO JUAREZ,PAREDÓN COLORADO (PAREDÓN VIEJO),27.07652252,-109.9319566,Sin conexión,1.85,"27.079185, -109.913514",0,Nivel 3 (Alto)
3396,Salud,CENTRO DE SALUD RURAL SAN IGNACIO RIO MUERTO,SAN IGNACIO RIO MUERTO,SAN IGNACIO RIO MUERTO,27.41105156,-110.2449952,Sin conexión,0.56,"27.409988, -110.239434",0,Nivel 3 (Alto)
3397,Salud,CENTRO DE SALUD RURAL AGIABAMPO 1,HUATABAMPO,AGIABAMPO UNO,26.36498003,-109.1433381,Sin conexión,13.17,"26.427719, -109.031198",0,Nivel 3 (Alto)
3398,Salud,CENTRO DE SALUD RURAL FCO. MIGUEL CARDENAS V. (MASCAREÑAS),NOGALES,FRANCISCO MIGUEL CÁRDENAS VALDEZ,31.27468736,-110.7935126,Sin conexión,10.37,"31.300917, -110.898194",0,Nivel 3 (Alto)
3399,Salud,CENTRO DE SALUD RURAL PLUTARCO ELIAS CALLES (LA Y GRIEGA),CABORCA,"PLUTARCO 
ELÍAS CALLES (L",30.80543521,-112.7131844,Sin conexión,0.01,"30.805425, -112.7130333",0,Nivel 3 (Alto)
3400,Salud,CENTRO DE SALUD RURAL EL CLARO,SANTA ANA,EL CLARO,30.45304568,-111.2036846,Sin conexión,0.19,"30.45145, -111.20288",0,Nivel 3 (Alto)
3401,Salud,CENTRO DE SALUD RURAL IGNACIO ZARAGOZA,CANANEA,IGNACIO ZARAGOZA (LA MESA),31.084488,-110.106732,Sin conexión,15.52,"31.16462, -109.9732",0,Nivel 3 (Alto)
3402,Salud,CENTRO DE SALUD EL TAZAJAL,HERMOSILLO,EL TAZAJAL,29.1428909,-110.8829391,Sin conexión,10.04,"29.14361389, -110.9862722",0,Nivel 3 (Alto)
3403,Salud,CENTRO DE SALUD RURAL EL CHOYUDO,HERMOSILLO,EL CHOYUDO,28.31852734,-111.4540045,Sin conexión,0.17,"28.317394, -111.4527777",0,Nivel 3 (Alto)
3404,Salud,CENTRO DE SALUD RURAL MESA DEL SERI,HERMOSILLO,MESA DE SERI,29.11102992,-110.8362488,Sin conexión,10.64,"29.196339, -110.7865361",0,Nivel 3 (Alto)
3405,Salud,CENTRO DE SALUD RURAL EL NOVILLO,SOYOPA,EL NOVILLO,28.93818502,-109.6374988,Sin conexión,12.56,"28.88552, -109.75171",0,Nivel 3 (Alto)
3406,Salud,CENTRO DE SALUD RURAL BASIROA,ALAMOS,BASIROA,26.713211,-108.9068,Sin conexión,6.96,"26.66351, -108.864288",0,Nivel 3 (Alto)
3407,Salud,CENTRO DE SALUD RURAL MESA COLORADA,MESA COLORADA,MESA COLORADA,27.57044845,-108.8633495,Sin conexión,36.36,"27.545293, -109.231119",0,Nivel 3 (Alto)
3409,Salud,CENTRO DE SALUD URBANO SAN LUIS RIO COLORADO,SAN LUIS RIO COLORADO,SAN LUIS RIO COLORADO,32.45705458,-114.7470624,Sin conexión,0.09,"32.456613, -114.746291",0,Nivel 3 (Alto)
3410,Salud,CENTRO COMUNITARIO DE SALUD MENTAL Y ADICCIONES HERMOSILLO I SUR,HERMOSILLO,HERMOSILLO,29.03058585,-110.9559177,Sin conexión,2.14,"29.037639, -110.935456",0,Nivel 3 (Alto)
3411,Salud,CENTRO COMUNITARIO DE SALUD MENTAL Y ADICCIONES HERMOSILLO II NORTE,HERMOSILLO,HERMOSILLO,29.12487275,-111.0200429,Sin conexión,2.75,"29.102933, -111.007014",0,Nivel 3 (Alto)
3412,Salud,CENTRO COMUNITARIO DE SALUD MENTAL Y ADICCIONES CAJEME I NORTE,CAJEME,CIUDAD OBREGON,27.51149414,-109.9211968,Sin conexión,1.84,"27.52598056, -109.9302889",0,Nivel 3 (Alto)
3413,Salud,CENTRO COMUNITARIO DE SALUD MENTAL Y ADICCIONES CAJEME II SUR,CAJEME,CIUDAD OBREGON,27.45559854,-109.9432205,Sin conexión,1.77,"27.46464167, -109.9284222",0,Nivel 3 (Alto)
3414,Salud,CENTRO COMUNITARIO DE SALUD MENTAL Y ADICCIONES GUAYMAS,GUAYMAS,HEROICA DE GUAYMAS,27.94650651,-110.9289694,Sin conexión,0.52,"27.94620556, -110.9342083",0,Nivel 3 (Alto)
3415,Salud,CENTRO COMUNITARIO DE SALUD MENTAL Y ADICCIONES NAVOJOA,NAVOJOA,NAVOJOA,27.06791076,-109.45027,Sin conexión,0.26,"27.06563326, -109.4497993",0,Nivel 3 (Alto)
3416,Salud,CENTRO COMUNITARIO DE SALUD MENTAL Y ADICCIONES CABORCA,CABORCA,CABORCA,30.71750636,-112.179474,Sin conexión,1.13,"30.715511, -112.167881",0,Nivel 3 (Alto)
3417,Salud,CENTRO COMUNITARIO DE SALUD MENTAL Y ADICCIONES PUERTO PEÑASCO,PUERTO PEÑASCO,PUERTO PEÑASCO,31.31967512,-113.5366993,Sin conexión,1.26,"31.32935585, -113.5298673",0,Nivel 3 (Alto)
3418,Salud,CENTRO COMUNITARIO DE SALUD MENTAL Y ADICCIONES SAN LUIS RIO COLORADO,SAN LUIS RIO COLORADO,SAN LUIS RIO COLORADO,32.45684103,-114.7470957,Sin conexión,0.08,"32.456613, -114.746291",0,Nivel 3 (Alto)
3419,Salud,CENTRO COMUNITARIO DE SALUD MENTAL Y ADICCIONES NOGALES,NOGALES,HEROICA DE NOGALES,31.28975161,-110.957828,Sin conexión,0.54,"31.28495, -110.95889",0,Nivel 3 (Alto)
3421,Salud,CENTRO COMUNITARIO DE SALUD MENTAL Y ADICCIONES AGUA PRIETA,AGUA PRIETA,AGUA PRIETA,31.29663231,-109.5548618,Sin conexión,1.51,"31.30943, -109.5601",0,Nivel 3 (Alto)
3422,Salud,CENTRO INTEGRAL DE SALUD MENTAL NAVOJOA (CISAME),NAVOJOA,NAVOJOA,27.06790359,-109.4495542,Sin conexión,0.25,"27.06563326, -109.4497993",0,Nivel 3 (Alto)
3423,Salud,CENTRO INTEGRAL DE SALUD MENTAL HERMOSILLO (CISAME),HERMOSILLO,HERMOSILLO,29.12491733,-111.0198659,Sin conexión,2.74,"29.102933, -111.007014",0,Nivel 3 (Alto)
3424,Salud,CENTRO ESTATAL DE ONCOLOGIA DR. ERNESTO RIVERA CLAISSE,HERMOSILLO,HERMOSILLO,29.06463995,-110.9624839,Sin conexión,0.46,"29.06763827, -110.9592655",0,Nivel 3 (Alto)
3426,Salud,HOSPITAL GENERAL DEL ESTADO DE SONORA,HERMOSILLO,HERMOSILLO,29.08165183,-111.0037725,Sin conexión,2.39,"29.102933, -111.007014",0,Nivel 3 (Alto)
3427,Salud,HOSPITAL GENERAL DE AGUA PRIETA,AGUA PRIETA,AGUA PRIETA,31.31938427,-109.5825713,Sin conexión,2.33,"31.31913889, -109.5580556",0,Nivel 3 (Alto)
3429,Salud,CENTRO DE SALUD RURAL VICENTE GUERRERO,CAJEME,VICENTE GUERRERO (EL PORTÓN),30.98144028,-110.4711839,Sin conexión,9.09,"31.00504444, -110.3799139",0,Nivel 3 (Alto)
3431,Salud,CENTRO DE SALUD RURAL JOSE MARIA MORELOS Y PAVON,CANANEA,JOSÉ MARÍA MORELOS Y PAVÓN (SAUCEDA),31.2138,-110.225,Sin conexión,24.49,"31.10824, -110.45094",0,Nivel 3 (Alto)
3470,Salud,MÓDULO SNTE SECCIÓN 54,HERMOSILLO,HERMOSILLO,29.075745,-110.955829,Sin conexión,0.14,"29.07631845, -110.9570658",0,Nivel 3 (Alto)
3471,Salud,MÓDULO AYUNTAMIENTO DE HERMOSILLO,HERMOSILLO,HERMOSILLO,29.13446218,-110.9797801,Sin conexión,1.2,"29.14361389, -110.9862722",0,Nivel 3 (Alto)
3527,Salud,CENTRO FEDERAL DE READAPTACION SOCIAL,HERMOSILLO,LA HABANA TRES,28.9716862,-111.2948458,Conectada,15.54,"28.85721389, -111.3863694",0,Nivel 2 (Medio)
3207,Salud,CENTRO DE SALUD OBREGÓN SUR,CAJEME,CD OBREGON,27.45541854,-109.9432272,Conectada,1.78,"27.46464167, -109.9284222",0,Nivel 2 (Medio)
3432,Salud,HOSPITAL GENERAL DE SAN LUIS RIO COLORADO,SAN LUIS RIO COLORADO,SAN LUIS RIO COLORADO,32.46998256,-114.7779719,Conectada,0.72,"32.473614, -114.784344",0,Nivel 2 (Medio)
3433,Salud,CENTRO MÉDICO DR. IGNACIO CHÁVEZ,HERMOSILLO,HERMOSILLO,29.09675281,-110.9542571,Conectada,2.14,"29.09162451, -110.9754325",0,Nivel 2 (Medio)
3434,Salud,HOSPITAL ADOLFO LÓPEZ MATEOS,Cajeme,Cd. Obregón,27.506614,-109.931898,Conectada,1.06,"27.49709444, -109.9322056",0,Nivel 2 (Medio)
3435,Salud,HOSPITAL ISSSTESON GUAYMAS,GUAYMAS,GUAYMAS,27.91919559,-110.9149123,Conectada,1.39,"27.91950278, -110.9007333",0,Nivel 2 (Medio)
3436,Salud,CLÍNICA HOSPITAL NOGALES,NOGALES,NOGALES,31.29797073,-110.9136363,Conectada,0.04,"31.29834167, -110.9137",0,Nivel 2 (Medio)
3437,Salud,POLICLÍNICO SIGLO XXI ISSSTESON  SNTE SECCIÓN 54,NAVOJOA,NAVOJOA,27.06126285,-109.4498222,Conectada,0.49,"27.06563326, -109.4497993",0,Nivel 2 (Medio)
3438,Salud,CENTRO INTEGRAL DE ATENCIÓN A LA SALUD SUR CENTRO,HERMOSILLO,HERMOSILLO,29.092813,-110.971671,Conectada,0.39,"29.09162451, -110.9754325",0,Nivel 2 (Medio)
3439,Salud,CENTRO INTEGRAL DE ATENCIÓN A LA SALUD SUR NORTE,HERMOSILLO,HERMOSILLO,29.11874509,-110.9919184,Conectada,0.94,"29.11026111, -110.9913861",0,Nivel 2 (Medio)
3440,Salud,CENTRO INTEGRAL DE ATENCIÓN A LA SALUD SUR,HERMOSILLO,HERMOSILLO,29.06612171,-110.9621705,Conectada,0.33,"29.06763827, -110.9592655",0,Nivel 2 (Medio)
3442,Salud,FARMACIA NO. 2,HERMOSILLO,HERMOSILLO,29.09675281,-110.9542571,Conectada,2.14,"29.09162451, -110.9754325",0,Nivel 2 (Medio)
3477,Salud,ITAMA - HERMOSILLO II FEMENIL,HERMOSILLO,HERMOSILLO,29.04248876,-110.9803153,Conectada,3.4,"29.064011, -110.955496",0,Nivel 2 (Medio)
3480,Salud,ITAMA - HERMOSILLO I,Hermosillo,Hermosillo,29.046383,-110.935254,Conectada,0.7,"29.051335, -110.939713",0,Nivel 2 (Medio)
3489,Salud,ITAMA - SAN LUIS RIO COLORADO,SAN LUIS RIO COLORADO,LA GRULLITA,32.424203,-114.795015,Conectada,1.63,"32.427675, -114.778164",0,Nivel 2 (Medio)
3821,Gobierno,CENTRO DE VACUNAS HERMOSILLO,Hermosillo ,Hermosillo,29.06364492,-110.9623738,Sin conexión,0.54,"29.06763827, -110.9592655",0,Nivel 3 (Alto)
3776,Gobierno,DISTRITO DE SALUD 2 CABORCA,Caborca ,Caborca,30.70707931,-112.1570688,Sin conexión,0.99,"30.71350833, -112.1499222",0,Nivel 3 (Alto)
3778,Gobierno,CONTROL SANITARIO CANANEA,Cananea,Cananea,30.98438908,-110.3064582,Sin conexión,0.77,"30.9777, -110.308617",0,Nivel 3 (Alto)
3779,Gobierno,COORDINACIÓN MÉDICA HUATABAMPO,Huatabampo ,Huatabampo,26.83579763,-109.6393749,Sin conexión,0.76,"26.84247222, -109.6411222",0,Nivel 3 (Alto)
3820,Gobierno,ARCHIVO LOPEZ CASTILLO,Hermosillo ,Hermosillo,29.09446871,-110.9799998,Sin conexión,0.54,"29.09162451, -110.9754325",0,Nivel 3 (Alto)
3603,Gobierno,SUBSECRETARÍA DE INGRESOS,Hermosillo,Hermosillo,29.0760353,-110.9590133,Conectada,0.16,"29.07489666, -110.9580838",0,Nivel 2 (Medio)
3612,Gobierno,DIRECCIÓN GENERAL DE RECAUDACIÓN,Sahuaripa,Sahuaripa,29.0560452,-109.2339324,Conectada,0.06,"29.05637, -109.23347",0,Nivel 2 (Medio)
3780,Gobierno,CONTROL SANITARIO MAGDALENA DE KINO ,Magdalena ,Magdalena de Kino,30.63190145,-110.9687018,Sin conexión,0.21,"30.63, -110.9690972",0,Nivel 3 (Alto)
3613,Gobierno,DIRECCIÓN GENERAL DE RECAUDACIÓN,Hermosillo,Hermosillo,29.0735472,-111.0688,Conectada,2.28,"29.06370833, -111.0482389",0,Nivel 2 (Medio)
3614,Gobierno,SUBSECRETARÍA DE INGRESOS,Hermosillo,Hermosillo,29.076184,-110.957031,Conectada,0.02,"29.07631845, -110.9570658",0,Nivel 2 (Medio)
3635,Gobierno,SERVICIOS DE SALUD DE SONORA,La Colorada,La Colorada,28.80279797,-110.5804702,Conectada,18.86,"28.766305, -110.769459",0,Nivel 2 (Medio)
3650,Gobierno,DIF SONORA,Hermosillo,Hermosillo,29.0757,-110.92289,Conectada,2.23,"29.06939286, -110.944628",0,Nivel 2 (Medio)
3781,Gobierno,CONTROL SANITARIO MOCTEZUMA,Moctezuma,Moctezuma,29.80132746,-109.6802591,Sin conexión,0.15,"29.80268, -109.68059",0,Nivel 3 (Alto)
3782,Gobierno,DISTRITO DE SALUD 5 NAVOJOA,Navojoa ,Navojoa,27.07296504,-109.4439156,Sin conexión,0.67,"27.07895278, -109.443525",0,Nivel 3 (Alto)
3742,Gobierno,INSTITUTO SONORENSE DE CULTURA,Álamos,Álamos,27.02273031,-108.9339862,Sin conexión,0.39,"27.021836, -108.937803",0,Nivel 3 (Alto)
3750,Gobierno,INSTITUTO DE MOVILIDAD Y TRANSPORTE PARA EL ESTADO DE SONORA,Hermosillo,Hermosillo,29.0686322,-110.9575055,Sin conexión,0.03,"29.06842354, -110.9572519",0,Nivel 3 (Alto)
3751,Gobierno,INSTITUTO DE MOVILIDAD Y TRANSPORTE PARA EL ESTADO DE SONORA,Hermosillo,Hermosillo,29.0686322,-110.9575055,Sin conexión,0.03,"29.06842354, -110.9572519",0,Nivel 3 (Alto)
3752,Gobierno,INSTITUTO DE MOVILIDAD Y TRANSPORTE PARA EL ESTADO DE SONORA,Navojoa,Navojoa,27.08073945,-109.4454504,Sin conexión,0.26,"27.08241944, -109.4472139",0,Nivel 3 (Alto)
3753,Gobierno,INSTITUTO DE MOVILIDAD Y TRANSPORTE PARA EL ESTADO DE SONORA,Cajeme,Ciudad Obregón,27.49702062,-109.9323776,Sin conexión,0.02,"27.49709444, -109.9322056",0,Nivel 3 (Alto)
3754,Gobierno,INSTITUTO DE MOVILIDAD Y TRANSPORTE PARA EL ESTADO DE SONORA,Heroica Guaymas,Heroica Guaymas,27.92434419,-110.8902281,Sin conexión,1.16,"27.91950278, -110.9007333",0,Nivel 3 (Alto)
3775,Gobierno,CONTROL SANITARIO AGUA PRIETA,Agua Prieta ,Agua Prieta,31.32947208,-109.5517306,Sin conexión,0.51,"31.327, -109.54715",0,Nivel 3 (Alto)
3783,Gobierno,CONTROL SANITARIO NOGALES,Nogales ,Nogales,31.33181496,-110.9464768,Sin conexión,0.73,"31.328578, -110.939791",0,Nivel 3 (Alto)
3784,Gobierno,CONTROL SANITARIO PUERTO  PEÑASCO,Puerto Peñasco ,Puerto Peñasco,31.30647738,-113.5373929,Sin conexión,0.3,"31.305833, -113.540438",0,Nivel 3 (Alto)
3785,Gobierno,DISTRITO DE SALUD 6 SLRC,San Luis Rio Colorado ,San Luis Rio Colorado ,32.47162929,-114.7863684,Sin conexión,0.29,"32.473614, -114.784344",0,Nivel 3 (Alto)
3786,Gobierno,CENTRO DE VACUNAS SANTA ANA,Santa Ana,Santa Ana,30.538317,-111.1104196,Sin conexión,0.54,"30.54224722, -111.1137528",0,Nivel 3 (Alto)
3787,Gobierno,DISTRITO DE SALUD 3 SANTA ANA,Santa Ana,Santa Ana,30.54495985,-111.1190192,Sin conexión,0.22,"30.544323, -111.121223",0,Nivel 3 (Alto)
3788,Gobierno,CONTROL SANITARIO SANTA ANA,Santa Ana,Santa Ana,30.54354673,-111.1198546,Sin conexión,0.16,"30.544323, -111.121223",0,Nivel 3 (Alto)
3789,Gobierno,CENTRO DE GOBIERNO,Hermosillo ,Hermosillo,29.06843094,-110.9568971,Sin conexión,0.03,"29.06842354, -110.9572519",0,Nivel 3 (Alto)
3790,Gobierno,ALMACEN JURISDICCIONAL NAVOJOA,Navojoa ,Navojoa,27.0729124,-109.4439245,Sin conexión,0.67,"27.07895278, -109.443525",0,Nivel 3 (Alto)
3791,Gobierno,CENTRO JURISDICCIONAL DE VACUNAS NAVOJOA,Navojoa ,Navojoa,27.06816937,-109.4495986,Sin conexión,0.28,"27.06563326, -109.4497993",0,Nivel 3 (Alto)
3792,Gobierno,CONTROL SANITARIO NAVOJOA,Navojoa ,Navojoa,27.08797164,-109.4449918,Sin conexión,0.63,"27.082605, -109.447167",0,Nivel 3 (Alto)
3793,Gobierno,OFICINA DEL SECRETARIO,Hermosillo ,Hermosillo,29.06841687,-110.9569829,Sin conexión,0.03,"29.06842354, -110.9572519",0,Nivel 3 (Alto)
3794,Gobierno,DIRECCIÓN GENERAL DE SERVICIOS DE SALUD A LA PERSONA,Hermosillo ,Hermosillo,29.08314079,-110.9971988,Sin conexión,2.31,"29.09152931, -110.9754964",0,Nivel 3 (Alto)
3795,Gobierno,LABORATORIO ESTATAL SALUD PÚBLICA,Hermosillo ,Hermosillo,29.08363772,-110.997535,Sin conexión,2.31,"29.09152931, -110.9754964",0,Nivel 3 (Alto)
3796,Gobierno,CENTRO REGULADOR DE URGENCIAS MEDICAS CRUM HERMOSILLO ,Hermosillo ,Hermosillo,29.03921641,-110.9934169,Sin conexión,4.58,"29.06763827, -110.9592655",0,Nivel 3 (Alto)
3797,Gobierno,"DISTRITO DE SALUD 1, HERMOSILLO ",Hermosillo ,Hermosillo,29.0993844,-110.9747938,Sin conexión,0.87,"29.09162451, -110.9754325",0,Nivel 3 (Alto)
3798,Gobierno,CENTRO REGULADOR DE EMERGENCIAS MEDICAS CRUM TECORIPA ,La Colorada ,Tecoripa,28.62276457,-109.951358,Sin conexión,0.34,"28.62378, -109.9546",0,Nivel 3 (Alto)
3799,Gobierno,CASA DE SALUD TORIM ,Guaymas ,Torim,27.57928422,-110.2287597,Sin conexión,0.16,"27.57877, -110.22728",0,Nivel 3 (Alto)
3800,Gobierno,UNDEX AGUA PRIETA,Agua Prieta ,Agua Prieta,31.32790394,-109.5588856,Sin conexión,0.98,"31.31913889, -109.5580556",0,Nivel 3 (Alto)
3801,Gobierno,UNDEX NOGALES,Nogales ,Nogales,31.31627706,-110.9499712,Sin conexión,0.39,"31.316111, -110.945833",0,Nivel 3 (Alto)
3802,Gobierno,UNEME CABORCA,Caborca ,caborca ,30.71746385,-112.1797235,Sin conexión,1.15,"30.715511, -112.167881",0,Nivel 3 (Alto)
3803,Gobierno,CENTRO DE DESARROLLO INFANTIL SNTSA SECC. 43 (CDI),Hermosillo ,Hermosillo,29.12130985,-110.9600231,Sin conexión,3.29,"29.11026111, -110.9913861",0,Nivel 3 (Alto)
3804,Gobierno,DGPROSPE,Hermosillo ,Hermosillo,29.05312837,-110.9629752,Sin conexión,1.41,"29.064011, -110.955496",0,Nivel 3 (Alto)
3805,Gobierno,COMISION DE PROTECCION CONTRA RIESGOS SANITARIOS (COEPRISSON),Hermosillo ,Hermosillo,29.06839439,-110.9567367,Sin conexión,0.05,"29.06842354, -110.9572519",0,Nivel 3 (Alto)
3806,Gobierno,CENTRO AMBULATORIO PARA LA PREVENCIÓN Y ATENCIÓN DEL VIH SIDA E INFECCIONES DE TRANSMISION SEXUAL CD.OBREGÓN,Cajeme,Ciudad Obregón,27.51175114,-109.9212927,Sin conexión,1.81,"27.52598056, -109.9302889",0,Nivel 3 (Alto)
3807,Gobierno,ALMACEN JURISDICCIONAL OBREGÓN,Cajeme,Ciudad Obregón,27.48706201,-109.9399218,Sin conexión,1.35,"27.49709444, -109.9322056",0,Nivel 3 (Alto)
3808,Gobierno,CONTROL SANITARIO OBREGON,Cajeme,Ciudad Obregón,27.48444462,-109.9542903,Sin conexión,0.1,"27.48364722, -109.9538472",0,Nivel 3 (Alto)
3809,Gobierno,CENTRO DE CAPACITACIÓN EN SALUD,Hermosillo ,Hermosillo,29.0956964,-110.9509676,Sin conexión,2.23,"29.07631845, -110.9570658",0,Nivel 3 (Alto)
3810,Gobierno,CENTRO AMBULATORIO PARA LA PREVENCIÓN Y ATENCIÓN DEL VIH SIDA E INFECCIONES DE TRANSMISION SEXUAL HERMOSILLO ,Hermosillo ,Hermosillo,29.09878839,-110.9753117,Sin conexión,0.8,"29.09162451, -110.9754325",0,Nivel 3 (Alto)
3811,Gobierno,ALMACEN ACTIVO FIJO,Hermosillo ,Hermosillo,29.05289625,-110.9630413,Sin conexión,1.44,"29.064011, -110.955496",0,Nivel 3 (Alto)
3812,Gobierno,DIRECCIÓN PROTECCIÓN CIVIL,Hermosillo ,Hermosillo,29.07510608,-110.9828229,Sin conexión,1.96,"29.09152931, -110.9754964",0,Nivel 3 (Alto)
3813,Gobierno,UNIDAD DE ASUNTOS JURIDICOS ,Hermosillo ,Hermosillo,29.06962048,-110.9603397,Sin conexión,0.24,"29.06763827, -110.9592655",0,Nivel 3 (Alto)
3814,Gobierno,DIRECCIÓN DE TECNOLOGIAS DE LA INFORMACIÓN Y COMUNICACIONES,Hermosillo ,Hermosillo,29.07955861,-110.9919863,Sin conexión,2.08,"29.09152931, -110.9754964",0,Nivel 3 (Alto)
3815,Gobierno,JUNTA DE ASISTENCIA PRIVADA,Hermosillo ,Hermosillo,29.07739332,-110.9584525,Sin conexión,0.18,"29.07631845, -110.9570658",0,Nivel 3 (Alto)
3816,Gobierno,COMISIÓN DE ARBITRAJE MÉDICO,Hermosillo ,Hermosillo,29.0757309,-110.9472406,Sin conexión,0.75,"29.06939286, -110.944628",0,Nivel 3 (Alto)
3817,Gobierno,CENTRO ESTATAL DE TRANSPLANTES,Hermosillo ,Hermosillo,29.07832249,-110.9686753,Sin conexión,1.08,"29.0744732, -110.9584987",0,Nivel 3 (Alto)
3818,Gobierno,DIRECCIÓN GENERAL DE ASISTENCIA SOCIAL,Hermosillo ,Hermosillo,29.11568953,-110.9716328,Sin conexión,2.01,"29.11026111, -110.9913861",0,Nivel 3 (Alto)
3819,Gobierno,ALMACEN JURISDICCIÓN HERMOSILLO,Hermosillo ,Hermosillo,29.09487283,-110.9798267,Sin conexión,0.56,"29.09162451, -110.9754325",0,Nivel 3 (Alto)
3822,Gobierno,DIRECCIÓN GENERAL DE ADMINISTRACIÓN,Hermosillo ,Hermosillo,29.06840425,-110.9567421,Sin conexión,0.05,"29.06842354, -110.9572519",0,Nivel 3 (Alto)
3823,Gobierno,OFICINAS QUINTO PISO EDIFICIO MEXICO,Hermosillo ,Hermosillo,29.06748291,-110.9581771,Sin conexión,0.03,"29.06757, -110.95845",0,Nivel 3 (Alto)
3824,Gobierno,UNEME-ENFERMEDADES CRÓNICAS HERMOSILLO,Hermosillo ,Hermosillo,29.124893,-111.0200226,Sin conexión,2.75,"29.102933, -111.007014",0,Nivel 3 (Alto)
3825,Gobierno,UNEME NOGALES,Nogales ,Nogales,31.28969324,-110.9578139,Sin conexión,0.54,"31.28495, -110.95889",0,Nivel 3 (Alto)
3826,Gobierno,UNEME OBREGÓN,Cajeme ,Ciudad Obregón,27.45571067,-109.9431934,Sin conexión,1.76,"27.46464167, -109.9284222",0,Nivel 3 (Alto)
3827,Gobierno,UNEME PUERTO PEÑASCO,Puerto Peñasco ,Puerto Peñasco ,31.31966825,-113.53671,Sin conexión,1.26,"31.32935585, -113.5298673",0,Nivel 3 (Alto)
3828,Gobierno,UNEME SLRC,San Luis Rio Colorado ,San Luis Rio Colorado ,32.45684013,-114.7471562,Sin conexión,0.09,"32.456613, -114.746291",0,Nivel 3 (Alto)
3829,Gobierno,CENTRO AVANZADO DE ATENCION PRIMARIA A LA SALUD,Hermosillo ,Hermosillo,29.09970109,-110.9753237,Sin conexión,0.9,"29.09162451, -110.9754325",0,Nivel 3 (Alto)
3830,Gobierno,CENTRO DE HIGIENE MENTAL DR. CARLOS NAVA MUÑOZ,Hermosillo ,Hermosillo,29.07148835,-110.9558152,Sin conexión,0.25,"29.07067222, -110.9533944",0,Nivel 3 (Alto)
3831,Gobierno,UNIDAD DE ATENCION INTEGRAL A LAS ADICCIONES DEL ESTADO DE SONORA (UNAIDES-OBREGON),Cajeme,Providencia,27.51997354,-110.0009333,Sin conexión,6.07,"27.4836, -109.955",0,Nivel 3 (Alto)
3832,Gobierno,UNEME-ENFERMEDADES CRONICAS HERMOSILLO,Hermosillo ,Hermosillo,29.12489889,-111.0200438,Sin conexión,2.75,"29.102933, -111.007014",0,Nivel 3 (Alto)
3833,Gobierno,UNEME-ENFERMEDADES CRONICAS AGUA PRIETA,Agua Prieta ,Agua Prieta,31.29665731,-109.5551458,Sin conexión,1.5,"31.30943, -109.5601",0,Nivel 3 (Alto)
4520,Gobierno,H.AYUNTAMIENTO - ACONCHI,ACONCHI,ACONCHI,29.825783,-110.228603,Sin conexión,0.84,"29.8262, -110.21989",0,Nivel 3 (Alto)
4521,Gobierno,H.AYUNTAMIENTO - AGUA PRIETA,AGUA PRIETA,AGUA PRIETA,31.328022,-109.546376,Sin conexión,0.14,"31.327, -109.54715",0,Nivel 3 (Alto)
4522,Gobierno,H.AYUNTAMIENTO - ÁLAMOS,ALAMOS,ALAMOS,27.021674,-108.935342,Sin conexión,0.24,"27.021836, -108.937803",0,Nivel 3 (Alto)
4523,Gobierno,H.AYUNTAMIENTO - ALTAR,ALTAR,ALTAR,30.713551,-111.833537,Sin conexión,1.21,"30.70384167, -111.8277278",0,Nivel 3 (Alto)
4524,Gobierno,H.AYUNTAMIENTO - ARIVECHI,ARIVECHI,ARIVECHI,28.928514,-109.187172,Sin conexión,0.02,"28.92847, -109.18732",0,Nivel 3 (Alto)
4525,Gobierno,H.AYUNTAMIENTO - ARIZPE,ARIZPE,ARIZPE,30.336213,-110.166976,Sin conexión,0.25,"30.338364, -110.167683",0,Nivel 3 (Alto)
4526,Gobierno,H.AYUNTAMIENTO - ATIL,ATIL,ATIL,30.844188,-111.583427,Sin conexión,0.8,"30.847936, -111.576303",0,Nivel 3 (Alto)
4527,Gobierno,H.AYUNTAMIENTO - BACADEHUACHI,BACADEHUACHI,BACADEHUACHI,29.808684,-109.140623,Sin conexión,0.01,"29.80873, -109.14072",0,Nivel 3 (Alto)
4528,Gobierno,H.AYUNTAMIENTO - BACANORA,BACANORA,BACANORA,28.98415,-109.400379,Sin conexión,0.42,"28.98144, -109.40336",0,Nivel 3 (Alto)
4529,Gobierno,H.AYUNTAMIENTO - BACERAC,BACERAC,BACERAC,30.355149,-108.929697,Sin conexión,0.24,"30.356653, -108.927858",0,Nivel 3 (Alto)
4530,Gobierno,H.AYUNTAMIENTO - BACOACHI,BACOACHI,BACOACHI,30.633214,-109.969455,Sin conexión,0.13,"30.632433, -109.968483",0,Nivel 3 (Alto)
4531,Gobierno,H.AYUNTAMIENTO - BACUM,BACUM,BACUM,27.549954,-110.083127,Sin conexión,0.01,"27.54989167, -110.083075",0,Nivel 3 (Alto)
4532,Gobierno,H.AYUNTAMIENTO - BANAMICHI,BANAMICHI,BANAMICHI,30.007176,-110.2179,Sin conexión,0.01,"30.007164, -110.218019",0,Nivel 3 (Alto)
4533,Gobierno,H.AYUNTAMIENTO - BAVIACORA,BAVIACORA,BAVIACORA,29.715184,-110.164969,Sin conexión,0.01,"29.715211, -110.165078",0,Nivel 3 (Alto)
4534,Gobierno,H.AYUNTAMIENTO - BAVISPE,BAVISPE,BAVISPE,30.48046,-108.940646,Sin conexión,0.32,"30.47913, -108.94358",0,Nivel 3 (Alto)
4535,Gobierno,H.AYUNTAMIENTO - BENJAMIN HILL,BENJAMIN HILL,BENJAMIN HILL,30.166896,-111.117932,Sin conexión,0.12,"30.167956, -111.117789",0,Nivel 3 (Alto)
4536,Gobierno,H.AYUNTAMIENTO - CABORCA,CABORCA,HEROICA CABORCA,30.712425,-112.149803,Sin conexión,0.12,"30.71350833, -112.1499222",0,Nivel 3 (Alto)
4537,Gobierno,H.AYUNTAMIENTO - CAJEME,CAJEME,CIUDAD OBREGON,27.496428,-109.932485,Sin conexión,0.08,"27.49709444, -109.9322056",0,Nivel 3 (Alto)
4538,Gobierno,H.AYUNTAMIENTO - CANANEA,CANANEA,HEROICA CIUDAD DE CANANEA,30.982681,-110.301642,Sin conexión,0.87,"30.9777, -110.308617",0,Nivel 3 (Alto)
4539,Gobierno,H.AYUNTAMIENTO - CARBÓ,CARBO,CARBO,29.684524,-110.954443,Sin conexión,0.56,"29.68045, -110.957931",0,Nivel 3 (Alto)
4540,Gobierno,H.AYUNTAMIENTO - LA COLORADA,La Colorada,La Colorada,28.803013,-110.58072,Sin conexión,18.84,"28.766305, -110.769459",0,Nivel 3 (Alto)
4541,Gobierno,H.AYUNTAMIENTO - CUCURPE,CUCURPE,CUCURPE,30.329189,-110.706047,Sin conexión,0.2,"30.330397, -110.704533",0,Nivel 3 (Alto)
4542,Gobierno,H.AYUNTAMIENTO - CUMPAS,CUMPAS,CUMPAS,29.993487,-109.782539,Sin conexión,0.71,"29.996425, -109.77598",0,Nivel 3 (Alto)
4543,Gobierno,H.AYUNTAMIENTO - DIVISADEROS,DIVISADEROS,DIVISADEROS,29.614861,-109.47022,Sin conexión,0.01,"29.614828, -109.470172",0,Nivel 3 (Alto)
4544,Gobierno,H.AYUNTAMIENTO - EMPALME,EMPALME,EMPALME,27.957535,-110.815897,Sin conexión,0.01,"27.957581, -110.815899",0,Nivel 3 (Alto)
4545,Gobierno,H.AYUNTAMIENTO - ETCHOJOA,ETCHOJOA,ETCHOJOA,26.911615,-109.625925,Sin conexión,0,"26.911617, -109.625892",0,Nivel 3 (Alto)
4546,Gobierno,H.AYUNTAMIENTO - FRONTERAS,FRONTERAS,FRONTERAS,30.898101,-109.559746,Sin conexión,0.9,"30.894625, -109.568311",0,Nivel 3 (Alto)
4547,Gobierno,H.AYUNTAMIENTO - GRANADOS,GRANADOS,GRANADOS,29.862285,-109.310382,Sin conexión,0,"29.86225, -109.31035",0,Nivel 3 (Alto)
4548,Gobierno,H.AYUNTAMIENTO - GUAYMAS,Heroica Guaymas,Heroica Guaymas,27.923352,-110.88951,Sin conexión,1.18,"27.91950278, -110.9007333",0,Nivel 3 (Alto)
4549,Gobierno,H.AYUNTAMIENTO - HERMOSILLO,Hermosillo,Hermosillo,29.075392,-110.958292,Sin conexión,0.06,"29.07489666, -110.9580838",0,Nivel 3 (Alto)
4550,Gobierno,H.AYUNTAMIENTO - HUACHINERAS,HUACHINERA,HUACHINERA,30.211122,-108.958934,Sin conexión,0.46,"30.207014, -108.959606",0,Nivel 3 (Alto)
4551,Gobierno,H.AYUNTAMIENTO - HUASABAS,HUÁSABAS,HUÁSABAS,29.90422,-109.30154,Sin conexión,0.04,"29.90431, -109.30196",0,Nivel 3 (Alto)
4552,Gobierno,H.AYUNTAMIENTO - HUATABAMPO,HUATABAMPO,HUATABAMPO,26.827016,-109.644377,Sin conexión,1.75,"26.84247222, -109.6411222",0,Nivel 3 (Alto)
4553,Gobierno,H.AYUNTAMIENTO - HUEPAC,HUEPAC,HUEPAC,29.911182,-110.213619,Sin conexión,0.2,"29.91147, -110.21156",0,Nivel 3 (Alto)
4554,Gobierno,H.AYUNTAMIENTO - IMURIS,IMURIS,IMURIS,30.777322,-110.861517,Sin conexión,0.01,"30.7773, -110.8616389",0,Nivel 3 (Alto)
4555,Gobierno,H.AYUNTAMIENTO - MAGDALENA,MAGDALENA,MAGDALENA DE KINO,30.630217,-110.969323,Sin conexión,0.03,"30.63, -110.9690972",0,Nivel 3 (Alto)
4556,Gobierno,H.AYUNTAMIENTO - MAZATAN,MAZATAN,MAZATAN,29.003071,-110.139588,Sin conexión,0.62,"29.00672, -110.13476",0,Nivel 3 (Alto)
4557,Gobierno,H.AYUNTAMIENTO - MOCTEZUMA,MOCTEZUMA,MOCTEZUMA,29.802076,-109.680857,Sin conexión,0.07,"29.80268, -109.68059",0,Nivel 3 (Alto)
4558,Gobierno,H.AYUNTAMIENTO - NACO,NACO,NACO,31.331342,-109.948109,Sin conexión,0.03,"31.33107222, -109.9482",0,Nivel 3 (Alto)
4559,Gobierno,H.AYUNTAMIENTO - NACORI CHICO,NACORI CHICO,NACORI CHICO,29.685865,-108.978843,Sin conexión,0.1,"29.68636, -108.97802",0,Nivel 3 (Alto)
4560,Gobierno,H.AYUNTAMIENTO - NACOZARI DE GARCIA,NACOZARI DE GARCIA,NACOZARI DE GARCIA,30.37364,-109.686364,Sin conexión,0.19,"30.37529, -109.68584",0,Nivel 3 (Alto)
4561,Gobierno,H.AYUNTAMIENTO - NAVOJOA,NAVOJOA,NAVOJOA,27.082155,-109.445868,Sin conexión,0.14,"27.08241944, -109.4472139",0,Nivel 3 (Alto)
4562,Gobierno,H.AYUNTAMIENTO - NOGALES,NOGALES,HEROICA NOGALES,31.325855,-110.945643,Sin conexión,0.62,"31.32836667, -110.9398083",0,Nivel 3 (Alto)
4563,Gobierno,H.AYUNTAMIENTO - ONAVAS,ONAVAS,ONAVAS,28.46015,-109.528877,Sin conexión,0.01,"28.460069, -109.528962",0,Nivel 3 (Alto)
4564,Gobierno,H.AYUNTAMIENTO - OPODEPE,OPODEPE,OPODEPE,29.926618,-110.631521,Sin conexión,0.56,"29.925443, -110.625861",0,Nivel 3 (Alto)
4565,Gobierno,H.AYUNTAMIENTO - OQUITOA,OQUITOA,OQUITOA,30.742107,-111.734815,Sin conexión,0.01,"30.742219, -111.734878",0,Nivel 3 (Alto)
4566,Gobierno,H.AYUNTAMIENTO - PITIQUITO,PITIQUITO,PITIQUITO,30.675988,-112.052917,Sin conexión,0.27,"30.67713, -112.05045",0,Nivel 3 (Alto)
4567,Gobierno,H.AYUNTAMIENTO - PUERTO PEÑASCO,PUERTO PEÑASCO,PUERTO PEÑASCO,31.305894,-113.540519,Sin conexión,0.01,"31.305833, -113.540556",0,Nivel 3 (Alto)
4568,Gobierno,H.AYUNTAMIENTO - QUIRIEGO,QUIRIEGO,QUIRIEGO,27.520467,-109.250049,Sin conexión,0.11,"27.52065, -109.251129",0,Nivel 3 (Alto)
4569,Gobierno,H.AYUNTAMIENTO - RAYÓN,RAYON,RAYON,29.713028,-110.569277,Sin conexión,0.45,"29.714677, -110.5735",0,Nivel 3 (Alto)
4570,Gobierno,H.AYUNTAMIENTO - ROSARIO TESOPACO,ROSARIO,ROSARIO,27.840593,-109.370759,Sin conexión,0,"27.840604, -109.370759",0,Nivel 3 (Alto)
4571,Gobierno,H.AYUNTAMIENTO - SAHUARIPA,Sahuaripa,Sahuaripa,29.056336,-109.233486,Sin conexión,0,"29.05637, -109.23347",0,Nivel 3 (Alto)
4572,Gobierno,H.AYUNTAMIENTO - SAN FELIPE DE JESÚS,SAN FELIPE DE JESUS,SAN FELIPE DE JESUS,29.85848,-110.240983,Sin conexión,0.23,"29.858456, -110.243403",0,Nivel 3 (Alto)
4573,Gobierno,H.AYUNTAMIENTO - SAN JAVIER,SAN JAVIER,SAN JAVIER,28.595082,-109.739339,Sin conexión,0.04,"28.59521, -109.73969",0,Nivel 3 (Alto)
4574,Gobierno,H.AYUNTAMIENTO - SAN LUIS RIO COLORADO,SAN LUIS RIO COLORADO,SAN LUIS RIO COLORADO,32.479671,-114.779548,Sin conexión,0.06,"32.47933611, -114.7790444",0,Nivel 3 (Alto)
4575,Gobierno,H.AYUNTAMIENTO - SAN MIGUEL DE HORCASITAS,SAN MIGUEL DE HORCASITAS,SAN MIGUEL DE HORCASITAS,29.488406,-110.727171,Sin conexión,0.18,"29.487305, -110.725787",0,Nivel 3 (Alto)
4576,Gobierno,H.AYUNTAMIENTO - SAN PEDRO DE LA CUEVA,SAN PEDRO DE LA CUEVA,SAN PEDRO DE LA CUEVA,29.286764,-109.735495,Sin conexión,0.85,"29.288686, -109.743956",0,Nivel 3 (Alto)
4577,Gobierno,H.AYUNTAMIENTO - SANTA ANA,SANTA ANA,SANTA ANA,30.544353,-111.121269,Sin conexión,0,"30.544389, -111.121275",0,Nivel 3 (Alto)
4578,Gobierno,H.AYUNTAMIENTO - SANTA CRUZ,SANTA CRUZ,SANTA CRUZ,31.231641,-110.596063,Sin conexión,0.65,"31.237444, -110.595678",0,Nivel 3 (Alto)
4579,Gobierno,H.AYUNTAMIENTO - SARIC,SARIC,SARIC,31.102791,-111.379065,Sin conexión,0.35,"31.103939, -111.382436",0,Nivel 3 (Alto)
4580,Gobierno,H.AYUNTAMIENTO - SOYOPA,SOYOPA,SOYOPA,28.764588,-109.634353,Sin conexión,0.02,"28.76444, -109.63444",0,Nivel 3 (Alto)
4581,Gobierno,H.AYUNTAMIENTO - SUAQUI GRANDE,SUAQUI GRANDE,SUAQUI GRANDE,28.39554,-109.888193,Sin conexión,0.37,"28.394783, -109.891928",0,Nivel 3 (Alto)
4582,Gobierno,H.AYUNTAMIENTO - TEPACHE,TEPACHE,TEPACHE,29.534637,-109.532327,Sin conexión,0.68,"29.529121, -109.5294",0,Nivel 3 (Alto)
4583,Gobierno,H.AYUNTAMIENTO - TRINCHERAS,TRINCHERAS,TRINCHERAS,30.39873,-111.531662,Sin conexión,0.25,"30.39929, -111.5291",0,Nivel 3 (Alto)
4584,Gobierno,H.AYUNTAMIENTO - TUBUTAMA,TUBUTAMA,TUBUTAMA,30.885086,-111.465864,Sin conexión,11.32,"30.847936, -111.576303",0,Nivel 3 (Alto)
4585,Gobierno,H.AYUNTAMIENTO - URES,Ures,Ures,29.428142,-110.39018,Sin conexión,0.03,"29.42809, -110.38989",0,Nivel 3 (Alto)
4586,Gobierno,H.AYUNTAMIENTO - VILLA HIDALGO,VILLA HIDALGO,VILLA HIDALGO,30.163024,-109.320101,Sin conexión,0.43,"30.166433, -109.322178",0,Nivel 3 (Alto)
4587,Gobierno,H.AYUNTAMIENTO - VILLA PESQUEIRA,VILLA PESQUEIRA,VILLA PESQUEIRA (MÁTAPE),29.118298,-109.968957,Sin conexión,0.02,"29.11836, -109.96912",0,Nivel 3 (Alto)
4588,Gobierno,H.AYUNTAMIENTO - YECORA,YECORA,YECORA,28.372365,-108.925889,Sin conexión,0.04,"28.37264, -108.925702",0,Nivel 3 (Alto)
4589,Gobierno,H.AYUNTAMIENTO - SONOYTA,GENERAL PLUTARCO ELIAS CALLES,SONOYTA,31.866337,-112.857228,Sin conexión,0.77,"31.864325, -112.8494722",0,Nivel 3 (Alto)
4590,Gobierno,H.AYUNTAMIENTO - BENITO JUÁREZ,BENITO JUAREZ,VILLA JUAREZ,27.127845,-109.842582,Sin conexión,1.23,"27.128213, -109.830136",0,Nivel 3 (Alto)
4591,Gobierno,H.AYUNTAMIENTO - SAN IGNACIO RIO MUERTO,SAN IGNACIO RÍO MUERTO,SAN IGNACIO RÍO MUERTO,27.411248,-110.241488,Sin conexión,0.25,"27.409988, -110.239434",0,Nivel 3 (Alto)
3777,Gobierno,CONTROL SANITARIO CABORCA,Caborca ,Caborca,30.70963795,-112.1612118,Sin conexión,0.91,"30.715511, -112.167881",0,Nivel 3 (Alto)
3834,Gobierno,UNIDAD DE ESPECIALIDADES MEDICAS DE CIRUGIA AMBULATORIA,Hermosillo ,Hermosillo,29.06302002,-110.9641865,Sin conexión,0.7,"29.06763827, -110.9592655",0,Nivel 3 (Alto)
3564,Gobierno,SECRETARÍA / SUBSECRETARÍA DE PROMOCIÓN DEL EMPLEO Y PRODUCTIVIDAD,Hermosillo,Hermosillo,29.06760651,-110.9569843,Conectada,0.02,"29.06771437, -110.9571943",0,Nivel 2 (Medio)
3565,Gobierno,SUBSECRETARÍA DE PROMOCIÓN DEL EMPLEO Y PRODUCTIVIDAD,Hermosillo,Hermosillo,29.06793941,-110.9579392,Conectada,0.06,"29.06757, -110.95845",0,Nivel 2 (Medio)
3566,Gobierno,JUNTAS DE CONCILIACIÓN Y ARBITRAJE DEL ESTADO DE SONORA,Obregón,Obregón,27.49355018,-109.931536,Conectada,0.4,"27.49709444, -109.9322056",0,Nivel 2 (Medio)
3567,Gobierno,DIRECCIÓN GENERAL OPERATIVA DEL SERVICIO ESTATAL DEL EMPLEO,Obregón,Obregón,27.4972256,-109.9320895,Conectada,0.02,"27.49709444, -109.9322056",0,Nivel 2 (Medio)
3568,Gobierno,SUBSECRETARÍA DEL TRABAJO,Hermosillo,Hermosillo,29.06793941,-110.9579392,Conectada,0.06,"29.06757, -110.95845",0,Nivel 2 (Medio)
3569,Gobierno,JUNTAS DE CONCILIACIÓN Y ARBITRAJE DEL ESTADO DE SONORA,Hermosillo,Hermosillo,29.07316614,-110.9569232,Conectada,0.21,"29.0746145, -110.9582516",0,Nivel 2 (Medio)
3570,Gobierno,SECRETARÍA,Hermosillo,Hermosillo,29.07436975,-110.9602993,Conectada,0.18,"29.0744732, -110.9584987",0,Nivel 2 (Medio)
3571,Gobierno,JUNTAS DE CONCILIACIÓN Y ARBITRAJE DEL ESTADO DE SONORA,Navojoa,Navojoa,27.07716513,-109.4494122,Conectada,0.62,"27.07895278, -109.443525",0,Nivel 2 (Medio)
3572,Gobierno,DIRECCIÓN GENERAL OPERATIVA DEL SERVICIO ESTATAL DEL EMPLEO,Navojoa,Navojoa,27.08035815,-109.4439643,Conectada,0.16,"27.07895278, -109.443525",0,Nivel 2 (Medio)
3573,Gobierno,DIRECCIÓN GENERAL DE NOTARIAS,Hermosillo,Hermosillo,29.068086,-110.9569458,Conectada,0.05,"29.06771437, -110.9571943",0,Nivel 2 (Medio)
3574,Gobierno,SECRETARIA EJECUTIVA DEL SISTEMA ESTATAL DE PROTECCION INTEGRAL,Hermosillo,Hermosillo,29.0683566,-110.9569415,Conectada,0.03,"29.06842354, -110.9572519",0,Nivel 2 (Medio)
3575,Gobierno,COMISION DE BUSQUEDA DE PERSONAS PARA EL ESTADO DE SONORA,Hermosillo,Hermosillo,29.0683566,-110.9569415,Conectada,0.03,"29.06842354, -110.9572519",0,Nivel 2 (Medio)
3576,Gobierno,CONSEJO ESTATAL DE POBLACIÓN,Hermosillo,Hermosillo,29.068436,-110.956642,Conectada,0.06,"29.06842354, -110.9572519",0,Nivel 2 (Medio)
3577,Gobierno,DIRECCIÓN GENERAL DE REGISTRO CIVIL,Hermosillo,Hermosillo,29.06775617,-110.9566895,Conectada,0.05,"29.06771437, -110.9571943",0,Nivel 2 (Medio)
3578,Gobierno,COORDINACION ESTATAL DE PROTECCION CIVIL,Hermosillo,Hermosillo,29.07953,-110.949686,Conectada,0.8,"29.07631845, -110.9570658",0,Nivel 2 (Medio)
3587,Gobierno,DIRECCIÓN GENERAL DE REGISTRO CIVIL,Cajeme,Ciudad Obregón,27.4928933,-109.9316279,Conectada,0.47,"27.49709444, -109.9322056",0,Nivel 2 (Medio)
3722,Gobierno,SEC,Cananea,Cananea,30.98853019,-110.2631498,Conectada,0.01,"30.98850278, -110.2630333",0,Nivel 2 (Medio)
3579,Gobierno,INSTITUTO SONORENSE  DE LAS MUJERES,Hermosillo,Hermosillo,29.1121303,-110.9738553,Conectada,1.72,"29.11026111, -110.9913861",0,Nivel 2 (Medio)
3580,Gobierno,COMISION DE BUSQUEDA DE PERSONAS PARA EL ESTADO DE SONORA,Hermosillo,Hermosillo,29.00949,-110.955139,Conectada,1.91,"29.008651, -110.935527",0,Nivel 2 (Medio)
3581,Gobierno,DIRECCIÓN GENERAL DE ATENCIÓN A GRUPOS PRIORITARIOS Y MIGRANTES,Hermosillo,Hermosillo,29.06579526,-110.9706809,Conectada,1.13,"29.06763827, -110.9592655",0,Nivel 2 (Medio)
3582,Gobierno,COMISIÓN ESTATAL PARA EL  DESARROLLO DE LOS PUEBLOS Y COMUNIDADES INDIGENAS,Hermosillo,Hermosillo,29.07312,-110.9613,Conectada,0.31,"29.0744732, -110.9584987",0,Nivel 2 (Medio)
3583,Gobierno,DIRECCIÓN GENERAL DEL BOLETÍN OFICIAL Y ARCHIVO DEL ESTADO,Hermosillo,Hermosillo,29.07755121,-110.9541158,Conectada,0.32,"29.07631845, -110.9570658",0,Nivel 2 (Medio)
3584,Gobierno,DIRECCIÓN GENERAL DE CONCERTACIÓN AGRARIA,Hermosillo,Hermosillo,29.0722496,-110.9593514,Conectada,0.26,"29.0744732, -110.9584987",0,Nivel 2 (Medio)
3585,Gobierno,INSTITUTO SONORENSE  DE LAS MUJERES,Hermosillo,Miguel Alemán (La Doce),28.841168,-111.4823091,Conectada,0.67,"28.84228, -111.48905",0,Nivel 2 (Medio)
3586,Gobierno,INSTITUTO SONORENSE  DE LAS MUJERES,Magdalena de Kino,Magdalena de Kino,30.6306907,-110.97444,Conectada,0.45,"30.632581, -110.978589",0,Nivel 2 (Medio)
3588,Gobierno,DIRECCIÓN GENERAL DE REGISTRO CIVIL,Cajeme,Ciudad Obregón,27.4918262,-109.9462257,Conectada,1.18,"27.48364722, -109.9538472",0,Nivel 2 (Medio)
3589,Gobierno,DIRECCIÓN GENERAL DE REGISTRO CIVIL,Cajeme,Cócorit,27.5763352,-109.963483,Conectada,2.47,"27.56626, -109.9411",0,Nivel 2 (Medio)
3590,Gobierno,DIRECCIÓN GENERAL DE REGISTRO CIVIL,Hermosillo,Miguel Alemán (La Doce),28.841016,-111.480255,Conectada,0.87,"28.84228, -111.48905",0,Nivel 2 (Medio)
3591,Gobierno,DIRECCIÓN GENERAL DE REGISTRO CIVIL,Hermosillo,Hermosillo,29.1058014,-110.9536999,Conectada,2.64,"29.09162451, -110.9754325",0,Nivel 2 (Medio)
3592,Gobierno,DIRECCIÓN GENERAL DE REGISTRO CIVIL,Hermosillo,Hermosillo,29.0931518,-110.9770405,Conectada,0.23,"29.09162451, -110.9754325",0,Nivel 2 (Medio)
3593,Gobierno,DIRECCIÓN GENERAL DE REGISTRO CIVIL,Hermosillo,Hermosillo,29.0639234,-110.9557882,Conectada,0.03,"29.064011, -110.955496",0,Nivel 2 (Medio)
3594,Gobierno,DIRECCIÓN GENERAL DE ATENCIÓN A GRUPOS PRIORITARIOS Y MIGRANTES,Hermosillo,Hermosillo,29.07737,-110.94225,Conectada,0.92,"29.06939286, -110.944628",0,Nivel 2 (Medio)
3595,Gobierno,INSTITUTO SONORENSE  DE LAS MUJERES,Cajeme,Ciudad Obregón,27.4933194,-109.9280557,Conectada,0.59,"27.49709444, -109.9322056",0,Nivel 2 (Medio)
3609,Gobierno,DIRECCIÓN GENERAL DE ADMINISTRACIÓN,Hermosillo,Hermosillo,29.07578738,-110.9608908,Conectada,0.27,"29.0744732, -110.9584987",0,Nivel 2 (Medio)
3610,Gobierno,PROCURADURÍA FISCAL,Hermosillo,Hermosillo,29.1,-110.9570306,Conectada,2.02,"29.09162451, -110.9754325",0,Nivel 2 (Medio)
3691,Gobierno,ISSSTESON,Cajeme,Cd. Obregón,27.506614,-109.931898,Conectada,1.06,"27.49709444, -109.9322056",0,Nivel 2 (Medio)
3692,Gobierno,ISSSTESON,Nogales,Nogales,31.29797073,-110.9136363,Conectada,0.04,"31.29834167, -110.9137",0,Nivel 2 (Medio)
3700,Gobierno,TELEVISORA DE HERMOSILLO SA DE CV,Hermosillo,Hermosillo,29.089,-110.9776,Conectada,0.35,"29.09152931, -110.9754964",0,Nivel 2 (Medio)
3701,Gobierno,DIRECCIÓN GENERAL DE INFORMÁTICA,Hermosillo,Hermosillo,29.06781133,-110.9569752,Conectada,0.02,"29.06771437, -110.9571943",0,Nivel 2 (Medio)
3702,Gobierno,RADIO SONORA,Hermosillo,Hermosillo,29.07620636,-110.9543812,Conectada,0.26,"29.07631845, -110.9570658",0,Nivel 2 (Medio)
3703,Gobierno,UNIVERSIDAD ESTATAL DE SONORA,HERMOSILLO,HERMOSILLO,29.12492,-110.96224,Conectada,3.13,"29.14361389, -110.9862722",0,Nivel 2 (Medio)
3598,Gobierno,DIR. GRAL. DE PLAN. ADMIN. Y EVALUACION.,Hermosillo,Hermosillo,29.06847,-110.95671,Conectada,0.05,"29.06842354, -110.9572519",0,Nivel 2 (Medio)
3596,Gobierno,DESPACHO DEL SECRETARIO.,Hermosillo,Hermosillo,29.0684,-110.95757,Conectada,0.03,"29.06842354, -110.9572519",0,Nivel 2 (Medio)
3597,Gobierno,DIRECCIÓN GENERAL DE DESARROLLO AGRÍCOLA,Hermosillo,Hermosillo,29.06847,-110.95671,Conectada,0.05,"29.06842354, -110.9572519",0,Nivel 2 (Medio)
3599,Gobierno,SUBSECRETARIA DE GANADERIA,Hermosillo,Hermosillo,29.06771,-110.95616,Conectada,0.1,"29.06771437, -110.9571943",0,Nivel 2 (Medio)
3600,Gobierno,DESPACHO DE LA SECRETARIA.,Hermosillo,Hermosillo,29.06851,-110.95745,Conectada,0.02,"29.06842354, -110.9572519",0,Nivel 2 (Medio)
3601,Gobierno,DIRECCIÓN GENERAL DEL SISTEMA DE INFORMACIÓN FINANCIERA,Hermosillo,Hermosillo,29.06763827,-110.9569834,Conectada,0.02,"29.06771437, -110.9571943",0,Nivel 2 (Medio)
3602,Gobierno,SUBSECRETARÍA DE INGRESOS,Hermosillo,Hermosillo,29.076267,-110.9570306,Conectada,0.01,"29.07631845, -110.9570658",0,Nivel 2 (Medio)
3604,Gobierno,DIRECCIÓN GENERAL DE RECAUDACIÓN,Cajeme,Ciudad Obregón,27.49713761,-109.9322287,Conectada,0.01,"27.49709444, -109.9322056",0,Nivel 2 (Medio)
3605,Gobierno,COORDINACIÓN EJECUTIVA DE AUDITORÍA FISCAL,Cajeme,Ciudad Obregón,27.50253299,-109.945215,Conectada,1.42,"27.49709444, -109.9322056",0,Nivel 2 (Medio)
3606,Gobierno,DIRECCIÓN GENERAL DE RECAUDACIÓN,Hermosillo,Hermosillo,29,-110.9241469,Conectada,1.42,"29.01221702, -110.9283082",0,Nivel 2 (Medio)
3607,Gobierno,DIRECCIÓN GENERAL DE RECAUDACIÓN,Hermosillo,Miguel Alemán (La Doce),28.84004981,-111.4906051,Conectada,0.29,"28.84228, -111.48905",0,Nivel 2 (Medio)
3608,Gobierno,DIRECCIÓN GENERAL DE RECAUDACIÓN,Hermosillo,Hermosillo,29.09401396,-111.0209414,Conectada,0.77,"29.09499722, -111.0287889",0,Nivel 2 (Medio)
3611,Gobierno,DIRECCIÓN GENERAL DE CONTABILIDAD GUBERNAMENTAL,Hermosillo,Hermosillo,29.097711,-111.026827,Conectada,0.36,"29.09499722, -111.0287889",0,Nivel 2 (Medio)
3615,Gobierno,SERVICIOS DE SALUD DE SONORA,Hermosillo,Hermosillo,29.0685067,-110.9595856,Conectada,0.1,"29.06763827, -110.9592655",0,Nivel 2 (Medio)
3616,Gobierno,SERVICIOS DE SALUD DE SONORA,Hermosillo,Hermosillo,29.0676129,-110.9583258,Conectada,0.01,"29.06757, -110.95845",0,Nivel 2 (Medio)
3617,Gobierno,SERVICIOS DE SALUD DE SONORA,Hermosillo,Hermosillo,29.0532513,-110.9626379,Conectada,1.38,"29.064011, -110.955496",0,Nivel 2 (Medio)
3618,Gobierno,SERVICIOS DE SALUD DE SONORA,Cajeme,Cd Obregon,27.5117277,-109.9239078,Conectada,1.71,"27.52598056, -109.9302889",0,Nivel 2 (Medio)
3619,Gobierno,SERVICIOS DE SALUD DE SONORA,Cajeme,Cd Obregon,27.4871817,-109.939831,Conectada,1.33,"27.49709444, -109.9322056",0,Nivel 2 (Medio)
3620,Gobierno,SERVICIOS DE SALUD DE SONORA,Hermosillo,Hermosillo,29.0528983,-110.9630757,Conectada,1.44,"29.064011, -110.955496",0,Nivel 2 (Medio)
3621,Gobierno,SERVICIOS DE SALUD DE SONORA,Hermosillo,Hermosillo,29.0833037,-110.9974732,Conectada,2.32,"29.09152931, -110.9754964",0,Nivel 2 (Medio)
3622,Gobierno,SERVICIOS DE SALUD DE SONORA,Hermosillo,Hermosillo,29.0948141,-110.9796854,Conectada,0.54,"29.09162451, -110.9754325",0,Nivel 2 (Medio)
3623,Gobierno,SERVICIOS DE SALUD DE SONORA,Hermosillo,Hermosillo,29.0951276,-110.9800084,Conectada,0.59,"29.09162451, -110.9754325",0,Nivel 2 (Medio)
3624,Gobierno,JUNTA DE ASISTENCIA PRIVADA,Hermosillo,Hermosillo,29.0775,-110.958429,Conectada,0.19,"29.07631845, -110.9570658",0,Nivel 2 (Medio)
3625,Gobierno,DIRECCIÓN GENERAL DE ASISTENCIA SOCIAL,Hermosillo,Hermosillo,29.1157894,-110.9716816,Conectada,2.01,"29.11026111, -110.9913861",0,Nivel 2 (Medio)
3626,Gobierno,CENTRO ESTATAL DE TRASPLANTES,Hermosillo,Hermosillo,29.1081553,-110.9483188,Conectada,3.21,"29.09162451, -110.9754325",0,Nivel 2 (Medio)
3627,Gobierno,SERVICIOS DE SALUD DE SONORA,Hermosillo,Hermosillo,29.069658,-110.960306,Conectada,0.25,"29.06763827, -110.9592655",0,Nivel 2 (Medio)
3628,Gobierno,SERVICIOS DE SALUD DE SONORA,Hermosillo,Hermosillo,29.095717,-110.9522159,Conectada,2.21,"29.07631845, -110.9570658",0,Nivel 2 (Medio)
3629,Gobierno,SERVICIOS DE SALUD DE SONORA,Hermosillo,Hermosillo,29.07950017,-110.992004,Conectada,2.09,"29.09152931, -110.9754964",0,Nivel 2 (Medio)
3630,Gobierno,SERVICIOS DE SALUD DE SONORA,Hermosillo,Hermosillo,29.0528983,-110.9630757,Conectada,1.44,"29.064011, -110.955496",0,Nivel 2 (Medio)
3631,Gobierno,SERVICIOS DE SALUD DE SONORA,Hermosillo,Hermosillo,29.0796364,-110.9917946,Conectada,2.06,"29.09152931, -110.9754964",0,Nivel 2 (Medio)
3632,Gobierno,COMISIÓN DE ARBITRAJE MÉDICO DEL ESTADO DE SONORA,Hermosillo,Hermosillo,29.0756645,-110.9472913,Conectada,0.74,"29.06939286, -110.944628",0,Nivel 2 (Medio)
3633,Gobierno,COMISIÓN ESTATAL DE PROTECCIÓN CONTRA RIESGOS SANITARIOS ESTADO DE SONORA,Cajeme,Ciudad Obregón,27.484668,-109.9542079,Conectada,0.12,"27.48364722, -109.9538472",0,Nivel 2 (Medio)
3634,Gobierno,DIRECCIÓN GENERAL DE SERVICIOS DE SALUD A LA PERSONA,Hermosillo,Hermosillo,29.0636815,-110.9649072,Conectada,0.7,"29.06763827, -110.9592655",0,Nivel 2 (Medio)
3636,Gobierno,SERVICIOS DE SALUD DE SONORA,Hermosillo,Hermosillo,29.12052334,-110.965015,Conectada,2.8,"29.11026111, -110.9913861",0,Nivel 2 (Medio)
3637,Gobierno,SERVICIOS DE SALUD DE SONORA,Hermosillo,Hermosillo,29.039162,-110.993463,Conectada,4.59,"29.06763827, -110.9592655",0,Nivel 2 (Medio)
3638,Gobierno,SERVICIOS DE SALUD DE SONORA,Hermosillo,Hermosillo,29.099339,-110.9752084,Conectada,0.86,"29.09162451, -110.9754325",0,Nivel 2 (Medio)
3639,Gobierno,DIF SONORA,Hermosillo,Hermosillo,29.08963,-110.96782,Conectada,0.77,"29.09162451, -110.9754325",0,Nivel 2 (Medio)
3640,Gobierno,DIF SONORA,Hermosillo,Hermosillo,29.08954,-110.96768,Conectada,0.79,"29.09162451, -110.9754325",0,Nivel 2 (Medio)
3719,Gobierno,SEC,Cajeme,Obregon,27.52595172,-109.9302071,Conectada,0.01,"27.52598056, -109.9302889",0,Nivel 2 (Medio)
3641,Gobierno,DIF SONORA,Hermosillo,Hermosillo,29.11351199,-111.0021553,Conectada,0.95,"29.10935986, -110.9936158",0,Nivel 2 (Medio)
3642,Gobierno,DIF SONORA,Hermosillo,Hermosillo,29.09310057,-110.9293052,Conectada,3.03,"29.06939286, -110.944628",0,Nivel 2 (Medio)
3643,Gobierno,DIF SONORA,Hermosillo,Hermosillo,29.11246,-110.98787,Conectada,0.42,"29.11026111, -110.9913861",0,Nivel 2 (Medio)
3644,Gobierno,DIF SONORA,Hermosillo,Hermosillo,29.06275,-110.95762,Conectada,0.25,"29.064011, -110.955496",0,Nivel 2 (Medio)
3645,Gobierno,DIF SONORA,Hermosillo,Hermosillo,29.079,-110.94395,Conectada,1.07,"29.06939286, -110.944628",0,Nivel 2 (Medio)
3646,Gobierno,DIF SONORA,Hermosillo,Hermosillo,29.07504,-110.92302,Conectada,2.19,"29.06939286, -110.944628",0,Nivel 2 (Medio)
3647,Gobierno,DIF SONORA,Heroica Nogales,Heroica Nogales,31.27761,-110.92203,Conectada,0.66,"31.27536, -110.92842",0,Nivel 2 (Medio)
3648,Gobierno,DIF SONORA,San Luis Río Colorado,San Luis Río Colorado,32.48507768,-114.7832994,Conectada,0.75,"32.47933611, -114.7790444",0,Nivel 2 (Medio)
3649,Gobierno,DIF SONORA,Hermosillo,Hermosillo,29.12247,-110.95896,Conectada,3.43,"29.11026111, -110.9913861",0,Nivel 2 (Medio)
3651,Gobierno,DIF SONORA,Hermosillo,Hermosillo,29.0995,-110.95882,Conectada,1.84,"29.09162451, -110.9754325",0,Nivel 2 (Medio)
3652,Gobierno,DIF SONORA,Hermosillo,Hermosillo,29.03144,-110.95595,Conectada,2.11,"29.037639, -110.935456",0,Nivel 2 (Medio)
3653,Gobierno,DIF SONORA,Hermosillo,Hermosillo,29.12151,-110.9596,Conectada,3.33,"29.11026111, -110.9913861",0,Nivel 2 (Medio)
3654,Gobierno,DIF SONORA,Cajeme,Ciudad Obregón,27.49685,-109.90327,Conectada,2.85,"27.49709444, -109.9322056",0,Nivel 2 (Medio)
3655,Gobierno,DIRECCIÓN GENERAL DE SERVICIOS DE SALUD A LA PERSONA,Hermosillo,Hermosillo,29.0830228,-110.9962,Conectada,2.22,"29.09152931, -110.9754964",0,Nivel 2 (Medio)
3656,Gobierno,SERVICIOS DE SALUD DE SONORA,Hermosillo,Hermosillo,29.0672317,-110.9576705,Conectada,0.07,"29.06771437, -110.9571943",0,Nivel 2 (Medio)
3657,Gobierno,SUBSECRETARIA DE RECURSOS MATERIALES Y SERVICIOS,Hermosillo,Hermosillo,29.06781132,-110.958117,Conectada,0.04,"29.06757, -110.95845",0,Nivel 2 (Medio)
3658,Gobierno,SUBSECRETARIA DE GOBIERNO DIGITAL,Hermosillo,Hermosillo,29.06758018,-110.9570493,Conectada,0.02,"29.06771437, -110.9571943",0,Nivel 2 (Medio)
3659,Gobierno,DIRECCION GENERAL DE ADMINISTRACION DE RECURSOS HUMANOS,Hermosillo,Hermosillo,29.06758018,-110.9570493,Conectada,0.02,"29.06771437, -110.9571943",0,Nivel 2 (Medio)
3660,Gobierno,CECAP,Hermosillo,Hermosillo,29.06760109,-110.9584359,Conectada,0,"29.06757, -110.95845",0,Nivel 2 (Medio)
3661,Gobierno,DESARROLLO ORGANIZACIONAL,Hermosillo,Hermosillo,29.0678288,-110.95907,Conectada,0.03,"29.06763827, -110.9592655",0,Nivel 2 (Medio)
3662,Gobierno,CENDI 1,Hermosillo,Hermosillo,29.08241558,-110.9998535,Conectada,2.39,"29.102933, -111.007014",0,Nivel 2 (Medio)
3663,Gobierno,CENDI 2,Hermosillo,Hermosillo,29.07099852,-110.9571597,Conectada,0.29,"29.06842354, -110.9572519",0,Nivel 2 (Medio)
3664,Gobierno,COMISIÓN DE VIVIENDA DEL ESTADO DE SONORA,Hermosillo,Hermosillo,29.06809394,-110.9571521,Conectada,0.04,"29.06842354, -110.9572519",0,Nivel 2 (Medio)
3665,Gobierno,SECRETARÍA,Hermosillo,Hermosillo,29.06968285,-110.9613161,Conectada,0.3,"29.06763827, -110.9592655",0,Nivel 2 (Medio)
3666,Gobierno,DIRECCION GENERAL DE DESARROLLO REGIONAL,Cajeme,Ciudad Obregón,27.4816174,-109.9350108,Conectada,0.74,"27.4776144, -109.9289854",0,Nivel 2 (Medio)
3667,Gobierno,DIRECCIÓN GENERAL DE PARTICIPACIÓN SOCIAL,Cajeme,Ciudad Obregón,27.4816174,-109.9350108,Conectada,0.74,"27.4776144, -109.9289854",0,Nivel 2 (Medio)
3668,Gobierno,DIRECCIÓN GENERAL DE PARTICIPACIÓN SOCIAL,Navojoa,Navojoa,27.07574755,-109.4345234,Conectada,0.54,"27.074257, -109.429382",0,Nivel 2 (Medio)
3669,Gobierno,INSTITUTO SONORENSE DE LA JUVENTUD,Hermosillo,Hermosillo,29.07,-110.95,Conectada,0.34,"29.07067222, -110.9533944",0,Nivel 2 (Medio)
3670,Gobierno,INSTITUTO SONORENSE PARA LA ATENCIÓN DE LOS ADULTOS MAYORES,Hermosillo,Hermosillo,29.0377427,-110.9819182,Conectada,3.89,"29.064011, -110.955496",0,Nivel 2 (Medio)
3671,Gobierno,INSTITUTO SONORENSE PARA LA ATENCIÓN DE LOS ADULTOS MAYORES,Cajeme,Ciudad Obregón,27.4581191,-109.949709,Conectada,2.22,"27.46464167, -109.9284222",0,Nivel 2 (Medio)
3672,Gobierno,DESPACHO DEL CONSEJERO,Hermosillo,Hermosillo,29.0683251,-110.9569311,Conectada,0.03,"29.06842354, -110.9572519",0,Nivel 2 (Medio)
3673,Gobierno,DEFENSORÍA PÚBLICA,Hermosillo,Hermosillo,29.0745588,-110.9576521,Conectada,0.06,"29.07489666, -110.9580838",0,Nivel 2 (Medio)
3674,Gobierno,DEFENSORÍA PÚBLICA,Hermosillo,Hermosillo,29.0745588,-110.9576521,Conectada,0.06,"29.07489666, -110.9580838",0,Nivel 2 (Medio)
3675,Gobierno,DEFENSORÍA PÚBLICA,Hermosillo,Hermosillo,29.0745588,-110.9576521,Conectada,0.06,"29.07489666, -110.9580838",0,Nivel 2 (Medio)
3676,Gobierno,DEFENSORÍA PÚBLICA,Hermosillo,Hermosillo,29.0745588,-110.9576521,Conectada,0.06,"29.07489666, -110.9580838",0,Nivel 2 (Medio)
3677,Gobierno,DEFENSORÍA PÚBLICA,Hermosillo,Hermosillo,29.0745588,-110.9576521,Conectada,0.06,"29.07489666, -110.9580838",0,Nivel 2 (Medio)
3766,Gobierno,TELEFONÍA RURAL DE SONORA,Obregón,Obregón,27.52614,-109.92971,Conectada,0.06,"27.52598056, -109.9302889",0,Nivel 2 (Medio)
3678,Gobierno,DEFENSORÍA PÚBLICA,Cajeme,Ciudad Obregón,27.49843141,-109.9318068,Conectada,0.15,"27.49709444, -109.9322056",0,Nivel 2 (Medio)
3679,Gobierno,DESPACHO DEL CONSEJERO,Hermosillo,Hermosillo,29.0745194,-110.9572468,Conectada,0.09,"29.07489666, -110.9580838",0,Nivel 2 (Medio)
3680,Gobierno,DEFENSORÍA PÚBLICA,Hermosillo,Hermosillo,29.04567051,-110.9359149,Conectada,0.73,"29.051335, -110.939713",0,Nivel 2 (Medio)
3720,Gobierno,SEC,Caborca,Caborca,30.72766284,-112.1618631,Conectada,0.01,"30.727575, -112.1619417",0,Nivel 2 (Medio)
3681,Gobierno,DEFENSORÍA PÚBLICA,Hermosillo,Hermosillo,29.04647834,-110.9369389,Conectada,0.6,"29.051335, -110.939713",0,Nivel 2 (Medio)
3682,Gobierno,OFICINA DEL EJECUTIVO ESTATAL,Hermosillo,Hermosillo,29.06747714,-110.9580992,Conectada,0.04,"29.06757, -110.95845",0,Nivel 2 (Medio)
3683,Gobierno,COORDINACION GENERAL DEL SISTEMA ESTATAL DE COMUNICACIÓN SOCIAL,Hermosillo,Hermosillo,29.07461242,-110.9584031,Conectada,0.01,"29.0746145, -110.9582516",0,Nivel 2 (Medio)
3684,Gobierno,SECRETARIA TECNICA DE LA MESA DE SEGURIDAD,Hermosillo,Hermosillo,29.07461242,-110.9584031,Conectada,0.01,"29.0746145, -110.9582516",0,Nivel 2 (Medio)
3685,Gobierno,SECRETARÍA PARTICULAR,Hermosillo,Hermosillo,29.070695,-110.9574856,Conectada,0.25,"29.06842354, -110.9572519",0,Nivel 2 (Medio)
3686,Gobierno,SECRETARÍA PARTICULAR,Hermosillo,Hermosillo,29.09849326,-110.9371327,Conectada,3.14,"29.07631845, -110.9570658",0,Nivel 2 (Medio)
3687,Gobierno,SECRETARÍA PARTICULAR,Heroica Guaymas,Heroica Guaymas,27.92131232,-110.9462705,Conectada,3.01,"27.94620556, -110.9342083",0,Nivel 2 (Medio)
3688,Gobierno,SECRETARÍA PARTICULAR,Álamos,Álamos,27.02289122,-108.9396594,Conectada,0.22,"27.021836, -108.937803",0,Nivel 2 (Medio)
3689,Gobierno,ISSSTESON,Hermosillo,Hermosillo,29.07607042,-110.9577079,Conectada,0.07,"29.07631845, -110.9570658",0,Nivel 2 (Medio)
3690,Gobierno,ISSSTESON,Hermosillo,Hermosillo,29.09675281,-110.9542571,Conectada,2.14,"29.09162451, -110.9754325",0,Nivel 2 (Medio)
3693,Gobierno,ISSSTESON,Navojoa,Navojoa,27.06126285,-109.4498222,Conectada,0.49,"27.06563326, -109.4497993",0,Nivel 2 (Medio)
3694,Gobierno,ISSSTESON,Cajeme,Cd. Obregón,29.076254,-110.95944,Conectada,0.2,"29.07489666, -110.9580838",0,Nivel 2 (Medio)
3695,Gobierno,ISSSTESON,Cajeme,Cd. Obregón,29.076254,-110.95944,Conectada,0.2,"29.07489666, -110.9580838",0,Nivel 2 (Medio)
3696,Gobierno,ISSSTESON,Cajeme,Cd. Obregón,27.5066593,-109.9316384,Conectada,1.07,"27.49709444, -109.9322056",0,Nivel 2 (Medio)
3697,Gobierno,ISSSTESON,Cajeme,Cajeme,27.46507216,-109.9292732,Conectada,0.1,"27.46464167, -109.9284222",0,Nivel 2 (Medio)
3698,Gobierno,ISSSTESON,Hermosillo,Poblado Miguel Alemán,28.84088068,-111.4752236,Conectada,1.36,"28.84228, -111.48905",0,Nivel 2 (Medio)
3699,Gobierno,ISSSTESON,Cajeme,Pueblo Yaqui,27.3557573,-110.0355649,Conectada,0.17,"27.35423611, -110.035575",0,Nivel 2 (Medio)
3704,Gobierno,UNIVERSIDAD ESTATAL DE SONORA,HERMOSILLO,HERMOSILLO,29.10821,-110.996,Conectada,0.26,"29.10935986, -110.9936158",0,Nivel 2 (Medio)
3705,Gobierno,UNIVERSIDAD ESTATAL DE SONORA,Navojoa,Navojoa,27.04889,-109.45263,Conectada,0.17,"27.04738, -109.452824",0,Nivel 2 (Medio)
3706,Gobierno,COMISIÓN DEL DEPORTE DEL ESTADO DE SONORA,Hermosillo,Hermosillo,29.107118,-110.995112,Conectada,0.29,"29.10935986, -110.9936158",0,Nivel 2 (Medio)
3707,Gobierno,COMISIÓN DEL DEPORTE DEL ESTADO DE SONORA,Hermosillo,Hermosillo,29.11485946,-110.9967757,Conectada,0.68,"29.10935986, -110.9936158",0,Nivel 2 (Medio)
3708,Gobierno,COMISIÓN DEL DEPORTE DEL ESTADO DE SONORA,Hermosillo,Hermosillo,29.10784378,-110.9941422,Conectada,0.18,"29.10935986, -110.9936158",0,Nivel 2 (Medio)
3709,Gobierno,COMISIÓN DEL DEPORTE DEL ESTADO DE SONORA,Hermosillo,Hermosillo,29.10623296,-110.9941358,Conectada,0.35,"29.10935986, -110.9936158",0,Nivel 2 (Medio)
3710,Gobierno,COMISIÓN DEL DEPORTE DEL ESTADO DE SONORA,Hermosillo,Hermosillo,29.10856279,-110.9935553,Conectada,0.09,"29.10935986, -110.9936158",0,Nivel 2 (Medio)
3711,Gobierno,COMISIÓN DEL DEPORTE DEL ESTADO DE SONORA,Hermosillo,Hermosillo,29.107118,-110.995112,Conectada,0.29,"29.10935986, -110.9936158",0,Nivel 2 (Medio)
3712,Gobierno,COMISIÓN DEL DEPORTE DEL ESTADO DE SONORA,Hermosillo,Hermosillo,29.10682166,-110.9931703,Conectada,0.29,"29.10935986, -110.9936158",0,Nivel 2 (Medio)
3721,Gobierno,SEC,Nogales,Nogales,31.29012671,-110.9509952,Conectada,0.02,"31.29011, -110.951213",0,Nivel 2 (Medio)
3713,Gobierno,INSTITUTO DE BECAS Y CREDITO EDUCATIVO DEL ESTADO DE SONORA,Hermosillo,Hermosillo,29.08475277,-110.9760166,Conectada,0.76,"29.09152931, -110.9754964",0,Nivel 2 (Medio)
3714,Gobierno,INSTITUTO SONORENSE DE CULTURA,Hermosillo,Hermosillo,29.0671048,-110.9556842,Conectada,0.16,"29.06771437, -110.9571943",0,Nivel 2 (Medio)
3715,Gobierno,INSTITUTO SONORENSE DE CULTURA,Hermosillo,Hermosillo,29.07422812,-110.9581449,Conectada,0.04,"29.0744732, -110.9584987",0,Nivel 2 (Medio)
3716,Gobierno,INSTITUTO SONORENSE DE CULTURA,Ciudad Obregón,Ciudad Obregón,27.49954501,-109.9675778,Conectada,2.16,"27.4836, -109.955",0,Nivel 2 (Medio)
3717,Gobierno,INSTITUTO SONORENSE DE EDUCACIÓN PARA LOS ADULTOS,Hermosillo,Hermosillo,29.07657424,-110.9464169,Conectada,0.82,"29.06939286, -110.944628",0,Nivel 2 (Medio)
3718,Gobierno,UNIVERSIDAD DE LA SIERRA,Hermosillo,Moctezuma,29.82363684,-109.6783969,Conectada,0.01,"29.823617, -109.67851",0,Nivel 2 (Medio)
3723,Gobierno,SEC,Guaymas,Guaymas,27.946254,-110.93405,Conectada,0.02,"27.94620556, -110.9342083",0,Nivel 2 (Medio)
3724,Gobierno,SEC,Navojoa,Navojoa,27.08268397,-109.4473115,Conectada,0.02,"27.082605, -109.447167",0,Nivel 2 (Medio)
3725,Gobierno,SEC,Huatabampo,Huatabampo,26.84233,-109.641225,Conectada,0.02,"26.84247222, -109.6411222",0,Nivel 2 (Medio)
3726,Gobierno,UNIVERSIDAD ESTATAL DE SONORA,Hermosillo,Hermosillo,29.07155,-110.95527,Conectada,0.21,"29.07067222, -110.9533944",0,Nivel 2 (Medio)
3727,Gobierno,UNIVERSIDAD ESTATAL DE SONORA,BENITO JUÁREZ,VILLA JUÁREZ,27.12961,-109.84213,Conectada,1.2,"27.128213, -109.830136",0,Nivel 2 (Medio)
3728,Gobierno,UNIVERSIDAD ESTATAL DE SONORA,Magdalena de Kino,Magdalena de Kino,30.81129,-110.98418,Conectada,12.3,"30.7773, -110.8616389",0,Nivel 2 (Medio)
3729,Gobierno,UNIVERSIDAD ESTATAL DE SONORA,SAN LUIS RÍO COLORADO,SAN LUIS RÍO COLORADO,32.46907,-114.75881,Conectada,1.82,"32.456613, -114.746291",0,Nivel 2 (Medio)
3730,Gobierno,UNIVERSIDAD ESTATAL DE SONORA,HERMOSILLO,MIGUEL ALEMÁN (La Doce),28.841129,-111.4684,Conectada,2.02,"28.84228, -111.48905",0,Nivel 2 (Medio)
3731,Gobierno,UNIVERSIDAD TECNOLÓGICA DE HERMOSILLO,Hermosillo,Hermosillo,29.00925369,-110.9013612,Conectada,2.3,"29.01491188, -110.9241526",0,Nivel 2 (Medio)
3732,Gobierno,COMISIÓN DEL DEPORTE DEL ESTADO DE SONORA,Hermosillo,Hermosillo,29.09513488,-110.9524861,Conectada,2.14,"29.07631845, -110.9570658",0,Nivel 2 (Medio)
3733,Gobierno,COMISIÓN DEL DEPORTE DEL ESTADO DE SONORA,Hermosillo,Hermosillo,29.1189121,-110.9725985,Conectada,2.06,"29.11026111, -110.9913861",0,Nivel 2 (Medio)
